[
{
		"id": "2798",
		"name": "Port of Aberaeron",
		"asciiName": null,
		"a3": "GBR",
		"stateCode": "",
		"stateName": "Ceredigion",
		"url": "",
		"authority": "Aberaeron Harbour Authority",
		"location": "Aberaeron",
		"lat": "52.243016787197355000000000000000",
		"lng": "-4.263639450073242000000000000000",
		"zoom": "16",
		"wpi": null,
		"size": "1",
		"thumb": "1",
		"review": "0",
		"uri": "GBR_Port_of_Aberaeron_2798.php"
	}, {
		"id": "2807",
		"name": "Aberdovey Harbour",
		"asciiName": null,
		"a3": "GBR",
		"stateCode": "",
		"stateName": "Gwynedd",
		"url": "",
		"authority": "Aberdovey Port Authority",
		"location": "Aberdovey",
		"lat": "52.543411808333660000000000000000",
		"lng": "-4.043633937835693000000000000000",
		"zoom": "16",
		"wpi": "34830",
		"size": "1",
		"thumb": "1",
		"review": "0",
		"uri": "GBR_Aberdovey_Harbour_2807.php"
	}, {
		"id": "2855",
		"name": "Port of Acarsaid",
		"asciiName": null,
		"a3": "GBR",
		"stateCode": "",
		"stateName": "Isle of Benbecula",
		"url": "www.cne-siar.gov.uk\/harbourmaster",
		"authority": "Comhairle Nan Eilean Siar",
		"location": "Acarsaid",
		"lat": "57.067511756988060000000000000000",
		"lng": "-7.294149398803711000000000000000",
		"zoom": "17",
		"wpi": null,
		"size": "1",
		"thumb": "1",
		"review": "0",
		"uri": "GBR_Port_of_Acarsaid_2855.php"
	}, {
		"id": "2844",
		"name": "Port of Aird Mhor",
		"asciiName": null,
		"a3": "GBR",
		"stateCode": "",
		"stateName": "Isle of Benbecula",
		"url": "www.cne-siar.gov.uk\/harbourmaster",
		"authority": "Comhairle Nan Eilean Siar",
		"location": "Aird Mhor",
		"lat": "56.960004891308550000000000000000",
		"lng": "-7.441381216049194000000000000000",
		"zoom": "17",
		"wpi": null,
		"size": "1",
		"thumb": "1",
		"review": "0",
		"uri": "GBR_Port_of_Aird_Mhor_2844.php"
	}, {
		"id": "2808",
		"name": "Port of Appledore",
		"asciiName": null,
		"a3": "GBR",
		"stateCode": "",
		"stateName": "Devon",
		"url": "",
		"authority": "Appledore Port Authority",
		"location": "Appledore",
		"lat": "51.045657079012850000000000000000",
		"lng": "-4.191455841064453000000000000000",
		"zoom": "14",
		"wpi": null,
		"size": "1",
		"thumb": "1",
		"review": "0",
		"uri": "GBR_Port_of_Appledore_2808.php"
	}, {
		"id": "4532",
		"name": "Aultbea Harbor",
		"asciiName": null,
		"a3": "GBR",
		"stateCode": "",
		"stateName": "",
		"url": "",
		"authority": "",
		"location": "Aultbea",
		"lat": "57.833511862302935000000000000000",
		"lng": "-5.589380264282227000000000000000",
		"zoom": "14",
		"wpi": "32830",
		"size": "1",
		"thumb": "1",
		"review": "0",
		"uri": "GBR_Aultbea_Harbor_4532.php"
	}, {
		"id": "4517",
		"name": "Balfour Pier",
		"asciiName": null,
		"a3": "GBR",
		"stateCode": "",
		"stateName": "Scotland",
		"url": "www.orkneyharbours.com",
		"authority": "Orkney Islands Council",
		"location": "Balfour",
		"lat": "59.031242383566590000000000000000",
		"lng": "-2.908608913421631000000000000000",
		"zoom": "17",
		"wpi": null,
		"size": "1",
		"thumb": "1",
		"review": "0",
		"uri": "GBR_Balfour_Pier_4517.php"
	}, {
		"id": "3814",
		"name": "Ballantrae Harbor",
		"asciiName": null,
		"a3": "GBR",
		"stateCode": "",
		"stateName": "Scotland",
		"url": "www.south-ayrshire.gov.uk",
		"authority": "South Ayrshire Council",
		"location": "Ballantrae",
		"lat": "55.104805000283250000000000000000",
		"lng": "-5.009036064147949000000000000000",
		"zoom": "17",
		"wpi": null,
		"size": "1",
		"thumb": "1",
		"review": "0",
		"uri": "GBR_Ballantrae_Harbor_3814.php"
	}, {
		"id": "2147",
		"name": "Baltasound Harbour",
		"asciiName": null,
		"a3": "GBR",
		"stateCode": "",
		"stateName": "Shetland",
		"url": "www.shetland.gov.uk\/ports",
		"authority": "Sullom Voe Harbour Authority",
		"location": "Baltasound",
		"lat": "60.759641655987410000000000000000",
		"lng": "-0.838168859481811500000000000000",
		"zoom": "17",
		"wpi": null,
		"size": "1",
		"thumb": "1",
		"review": "0",
		"uri": "GBR_Baltasound_Harbour_2147.php"
	}, {
		"id": "2800",
		"name": "Banff Harbour",
		"asciiName": null,
		"a3": "GBR",
		"stateCode": "",
		"stateName": "Banffshire",
		"url": "www.aberdeenshire.gov.uk\/harbours",
		"authority": "Aberdeenshire Council",
		"location": "Banff",
		"lat": "57.669897622266745000000000000000",
		"lng": "-2.522553205490112300000000000000",
		"zoom": "17",
		"wpi": "32260",
		"size": "1",
		"thumb": "1",
		"review": "0",
		"uri": "GBR_Banff_Harbour_2800.php"
	}, {
		"id": "2849",
		"name": "Port of Bayble",
		"asciiName": null,
		"a3": "GBR",
		"stateCode": "",
		"stateName": "Isle of Benbecula",
		"url": "www.cne-siar.gov.uk\/harbourmaster",
		"authority": "Comhairle Nan Eilean Siar",
		"location": "Bayble",
		"lat": "58.197552217386690000000000000000",
		"lng": "-6.207999587059021000000000000000",
		"zoom": "18",
		"wpi": null,
		"size": "1",
		"thumb": "1",
		"review": "0",
		"uri": "GBR_Port_of_Bayble_2849.php"
	}, {
		"id": "3851",
		"name": "Blacktoft Jetty",
		"asciiName": null,
		"a3": "GBR",
		"stateCode": "",
		"stateName": "North Humberside",
		"url": "",
		"authority": "Associated British Ports",
		"location": "Blacktoft",
		"lat": "53.707148047761840000000000000000",
		"lng": "-0.726857185363769500000000000000",
		"zoom": "17",
		"wpi": null,
		"size": "1",
		"thumb": "1",
		"review": "0",
		"uri": "GBR_Blacktoft_Jetty_3851.php"
	}, {
		"id": "4461",
		"name": "Bowling Harbor",
		"asciiName": "",
		"a3": "GBR",
		"stateCode": "",
		"stateName": "",
		"url": "",
		"authority": "",
		"location": "Bowling",
		"lat": "55.929694980462564000000000000000",
		"lng": "-4.479868412017822000000000000000",
		"zoom": "16",
		"wpi": "33450",
		"size": "1",
		"thumb": "1",
		"review": "0",
		"uri": "GBR_Bowling_Harbor_4461.php"
	}, {
		"id": "2838",
		"name": "Breasclete Harbour",
		"asciiName": null,
		"a3": "GBR",
		"stateCode": "",
		"stateName": "Isle of Benbecula",
		"url": "www.cne-siar.gov.uk\/harbourmaster",
		"authority": "Comhairle Nan Eilean Siar",
		"location": "Breasclete",
		"lat": "58.216505061831600000000000000000",
		"lng": "-6.755561828613281000000000000000",
		"zoom": "15",
		"wpi": null,
		"size": "1",
		"thumb": "1",
		"review": "0",
		"uri": "GBR_Breasclete_Harbour_2838.php"
	}, {
		"id": "2818",
		"name": "Brodick Harbour",
		"asciiName": null,
		"a3": "GBR",
		"stateCode": "",
		"stateName": "Isle of Aran",
		"url": "",
		"authority": "Brodick Harbour Port Authority",
		"location": "Brodick",
		"lat": "55.577046786999840000000000000000",
		"lng": "-5.138264894485474000000000000000",
		"zoom": "17",
		"wpi": null,
		"size": "1",
		"thumb": "1",
		"review": "0",
		"uri": "GBR_Brodick_Harbour_2818.php"
	}, {
		"id": "4468",
		"name": "Bromborough Dock",
		"asciiName": null,
		"a3": "GBR",
		"stateCode": "",
		"stateName": "",
		"url": "",
		"authority": "",
		"location": "Bromborough",
		"lat": "53.356013776734330000000000000000",
		"lng": "-2.977144718170166000000000000000",
		"zoom": "14",
		"wpi": null,
		"size": "1",
		"thumb": "1",
		"review": "0",
		"uri": "GBR_Bromborough_Dock_4468.php"
	}, {
		"id": "3836",
		"name": "Brora Harbor",
		"asciiName": null,
		"a3": "GBR",
		"stateCode": "",
		"stateName": "Scotland",
		"url": "",
		"authority": "Highland Council",
		"location": "Brora",
		"lat": "58.010786286015460000000000000000",
		"lng": "-3.848079442977905300000000000000",
		"zoom": "17",
		"wpi": null,
		"size": "1",
		"thumb": "1",
		"review": "0",
		"uri": "GBR_Brora_Harbor_3836.php"
	}, {
		"id": "2900",
		"name": "Port of Buckie",
		"asciiName": null,
		"a3": "GBR",
		"stateCode": "",
		"stateName": "Grampian",
		"url": "",
		"authority": "The Moray Council",
		"location": "Buckie",
		"lat": "57.681118910029710000000000000000",
		"lng": "-2.955837249755859400000000000000",
		"zoom": "15",
		"wpi": "32290",
		"size": "1",
		"thumb": "1",
		"review": "0",
		"uri": "GBR_Port_of_Buckie_2900.php"
	}, {
		"id": "4470",
		"name": "Bude Harbor",
		"asciiName": null,
		"a3": "GBR",
		"stateCode": "",
		"stateName": "",
		"url": "",
		"authority": "",
		"location": "Bude",
		"lat": "50.827842798583730000000000000000",
		"lng": "-4.548543691635132000000000000000",
		"zoom": "17",
		"wpi": null,
		"size": "1",
		"thumb": "1",
		"review": "0",
		"uri": "GBR_Bude_Harbor_4470.php"
	}, {
		"id": "4498",
		"name": "Burray Pier",
		"asciiName": null,
		"a3": "GBR",
		"stateCode": "",
		"stateName": "Scotland",
		"url": "www.orkneyharbours.com",
		"authority": "Orkney Islands Council",
		"location": "Burray",
		"lat": "58.843312806891990000000000000000",
		"lng": "-2.915550470352173000000000000000",
		"zoom": "17",
		"wpi": null,
		"size": "1",
		"thumb": "1",
		"review": "0",
		"uri": "GBR_Burray_Pier_4498.php"
	}, {
		"id": "4500",
		"name": "Burwick Pier",
		"asciiName": null,
		"a3": "GBR",
		"stateCode": "",
		"stateName": "Scotland",
		"url": "www.orkneyharbours.com",
		"authority": "Orkney Islands Council",
		"location": "Burwick",
		"lat": "58.739828819605550000000000000000",
		"lng": "-2.972724437713623000000000000000",
		"zoom": "16",
		"wpi": null,
		"size": "1",
		"thumb": "1",
		"review": "0",
		"uri": "GBR_Burwick_Pier_4500.php"
	}, {
		"id": "4472",
		"name": "Port of Campbeltown",
		"asciiName": null,
		"a3": "GBR",
		"stateCode": "",
		"stateName": "",
		"url": "",
		"authority": "",
		"location": "Campbeltown",
		"lat": "55.424483847329460000000000000000",
		"lng": "-5.601031780242920000000000000000",
		"zoom": "16",
		"wpi": "33300",
		"size": "1",
		"thumb": "1",
		"review": "0",
		"uri": "GBR_Port_of_Campbeltown_4472.php"
	}, {
		"id": "3861",
		"name": "Canna Harbor",
		"asciiName": null,
		"a3": "GBR",
		"stateCode": "",
		"stateName": "Scotland",
		"url": "",
		"authority": "National Trust for Scotland",
		"location": "Canna",
		"lat": "57.056013652536464000000000000000",
		"lng": "-6.490613222122192000000000000000",
		"zoom": "17",
		"wpi": null,
		"size": "1",
		"thumb": "1",
		"review": "0",
		"uri": "GBR_Canna_Harbor_3861.php"
	}, {
		"id": "3862",
		"name": "Caolis Harbor",
		"asciiName": null,
		"a3": "GBR",
		"stateCode": "",
		"stateName": "Scotland",
		"url": "www.cne-siar.gov.uk",
		"authority": "Comhairle Nan Eilean Siar",
		"location": "Caolis",
		"lat": "56.946074337180086000000000000000",
		"lng": "-7.533536553382873500000000000000",
		"zoom": "18",
		"wpi": null,
		"size": "1",
		"thumb": "1",
		"review": "0",
		"uri": "GBR_Caolis_Harbor_3862.php"
	}, {
		"id": "2835",
		"name": "Port of Carloway",
		"asciiName": null,
		"a3": "GBR",
		"stateCode": "",
		"stateName": "Isle of Benbecula",
		"url": "www.cne-siar.gov.uk\/harbourmaster",
		"authority": "Comhairle Nan Eilean Siar",
		"location": "Carloway",
		"lat": "58.278397248962970000000000000000",
		"lng": "-6.790816783905029000000000000000",
		"zoom": "16",
		"wpi": null,
		"size": "1",
		"thumb": "1",
		"review": "0",
		"uri": "GBR_Port_of_Carloway_2835.php"
	}, {
		"id": "4473",
		"name": "Charlestown Harbor",
		"asciiName": null,
		"a3": "GBR",
		"stateCode": "",
		"stateName": "",
		"url": "",
		"authority": "",
		"location": "Charlestown",
		"lat": "50.331395238590800000000000000000",
		"lng": "-4.756554365158081000000000000000",
		"zoom": "17",
		"wpi": "35320",
		"size": "1",
		"thumb": "1",
		"review": "0",
		"uri": "GBR_Charlestown_Harbor_4473.php"
	}, {
		"id": "2144",
		"name": "Collafirth Harbour",
		"asciiName": null,
		"a3": "GBR",
		"stateCode": "",
		"stateName": "Shetland",
		"url": "www.shetland.gov.uk\/ports",
		"authority": "Sullom Voe Harbour Authority",
		"location": "Collafirth",
		"lat": "60.540255960668290000000000000000",
		"lng": "-1.349591016769409200000000000000",
		"zoom": "17",
		"wpi": null,
		"size": "1",
		"thumb": "1",
		"review": "0",
		"uri": "GBR_Collafirth_Harbour_2144.php"
	}, {
		"id": "5051",
		"name": "Combwich Harbor",
		"asciiName": "",
		"a3": "GBR",
		"stateCode": "",
		"stateName": "",
		"url": "",
		"authority": "",
		"location": "Combwich",
		"lat": "51.175024849626830000000000000000",
		"lng": "-3.058469295501709000000000000000",
		"zoom": "17",
		"wpi": null,
		"size": "1",
		"thumb": "1",
		"review": "0",
		"uri": "GBR_Combwich_Harbor_5051.php"
	}, {
		"id": "4476",
		"name": "Corpach Harbor",
		"asciiName": null,
		"a3": "GBR",
		"stateCode": "",
		"stateName": "",
		"url": "",
		"authority": "",
		"location": "Corpach",
		"lat": "56.842224275296840000000000000000",
		"lng": "-5.121796131134033000000000000000",
		"zoom": "17",
		"wpi": "33190",
		"size": "1",
		"thumb": "1",
		"review": "0",
		"uri": "GBR_Corpach_Harbor_4476.php"
	}, {
		"id": "4525",
		"name": "Craignure Harbor",
		"asciiName": null,
		"a3": "GBR",
		"stateCode": "",
		"stateName": "",
		"url": "",
		"authority": "",
		"location": "Craignure",
		"lat": "56.471072529975510000000000000000",
		"lng": "-5.705788135528564500000000000000",
		"zoom": "16",
		"wpi": "33170",
		"size": "1",
		"thumb": "1",
		"review": "0",
		"uri": "GBR_Craignure_Harbor_4525.php"
	}, {
		"id": "2851",
		"name": "Port of Cromore",
		"asciiName": null,
		"a3": "GBR",
		"stateCode": "",
		"stateName": "Isle of Benbecula",
		"url": "www.cne-siar.gov.uk\/harbourmaster",
		"authority": "Comhairle Nan Eilean Siar",
		"location": "Cromore",
		"lat": "58.104563634659760000000000000000",
		"lng": "-6.416444778442383000000000000000",
		"zoom": "18",
		"wpi": null,
		"size": "1",
		"thumb": "1",
		"review": "0",
		"uri": "GBR_Port_of_Cromore_2851.php"
	}, {
		"id": "2850",
		"name": "Port of Crossbost",
		"asciiName": null,
		"a3": "GBR",
		"stateCode": "",
		"stateName": "Isle of Benbecula",
		"url": "www.cne-siar.gov.uk\/harbourmaster",
		"authority": "Comhairle Nan Eilean Siar",
		"location": "Crossbost",
		"lat": "58.131865467746714000000000000000",
		"lng": "-6.436572074890137000000000000000",
		"zoom": "15",
		"wpi": null,
		"size": "1",
		"thumb": "1",
		"review": "0",
		"uri": "GBR_Port_of_Crossbost_2850.php"
	}, {
		"id": "2146",
		"name": "Cullivoe Harbour",
		"asciiName": null,
		"a3": "GBR",
		"stateCode": "",
		"stateName": "Shetland",
		"url": "www.shetland.gov.uk\/ports",
		"authority": "Sullom Voe Harbour Authority",
		"location": "Cullivoe",
		"lat": "60.698413128145745000000000000000",
		"lng": "-0.998811721801757800000000000000",
		"zoom": "15",
		"wpi": null,
		"size": "1",
		"thumb": "1",
		"review": "0",
		"uri": "GBR_Cullivoe_Harbour_2146.php"
	}, {
		"id": "3825",
		"name": "Derbyhaven Harbor",
		"asciiName": null,
		"a3": "GBR",
		"stateCode": "",
		"stateName": "Isle of Man",
		"url": "www.gov.im\/harbours",
		"authority": "Isle of Man Harbours",
		"location": "Derbyhaven",
		"lat": "54.075102852601816000000000000000",
		"lng": "-4.615459442138672000000000000000",
		"zoom": "14",
		"wpi": null,
		"size": "1",
		"thumb": "1",
		"review": "0",
		"uri": "GBR_Derbyhaven_Harbor_3825.php"
	}, {
		"id": "3810",
		"name": "Drummore Harbor",
		"asciiName": null,
		"a3": "GBR",
		"stateCode": "",
		"stateName": "Scotland",
		"url": "",
		"authority": "Drummore Harbour Trust Ltd",
		"location": "Drummore",
		"lat": "54.692134071280480000000000000000",
		"lng": "-4.890697002410889000000000000000",
		"zoom": "17",
		"wpi": null,
		"size": "1",
		"thumb": "1",
		"review": "0",
		"uri": "GBR_Drummore_Harbor_3810.php"
	}, {
		"id": "4483",
		"name": "Dunbar Harbor",
		"asciiName": "",
		"a3": "GBR",
		"stateCode": "",
		"stateName": "",
		"url": "",
		"authority": "",
		"location": "Dunbar",
		"lat": "56.005771928627280000000000000000",
		"lng": "-2.515482902526855500000000000000",
		"zoom": "17",
		"wpi": "31890",
		"size": "1",
		"thumb": "1",
		"review": "0",
		"uri": "GBR_Dunbar_Harbor_4483.php"
	}, {
		"id": "4484",
		"name": "Dunoon Harbor",
		"asciiName": "",
		"a3": "GBR",
		"stateCode": "",
		"stateName": "",
		"url": "",
		"authority": "",
		"location": "Dunoon",
		"lat": "55.947001062475664000000000000000",
		"lng": "-4.922819137573242000000000000000",
		"zoom": "16",
		"wpi": null,
		"size": "1",
		"thumb": "1",
		"review": "0",
		"uri": "GBR_Dunoon_Harbor_4484.php"
	}, {
		"id": "4469",
		"name": "Queen Elizabeth II Dock",
		"asciiName": null,
		"a3": "GBR",
		"stateCode": "",
		"stateName": "Cheshire",
		"url": "www.shipcanal.co.uk",
		"authority": "Manchester Ship Canal Company",
		"location": "Eastham",
		"lat": "53.321863528044595000000000000000",
		"lng": "-2.950322628021240200000000000000",
		"zoom": "15",
		"wpi": null,
		"size": "1",
		"thumb": "1",
		"review": "0",
		"uri": "GBR_Queen_Elizabeth_II_Dock_4469.php"
	}, {
		"id": "4488",
		"name": "Port of Eccles",
		"asciiName": null,
		"a3": "GBR",
		"stateCode": "",
		"stateName": "Cheshire",
		"url": "www.shipcanal.co.uk",
		"authority": "Manchester Ship Canal Co",
		"location": "Eccles",
		"lat": "53.477626294056610000000000000000",
		"lng": "-2.339916229248047000000000000000",
		"zoom": "14",
		"wpi": null,
		"size": "1",
		"thumb": "1",
		"review": "0",
		"uri": "GBR_Port_of_Eccles_4488.php"
	}, {
		"id": "4501",
		"name": "Backaland Pier",
		"asciiName": null,
		"a3": "GBR",
		"stateCode": "",
		"stateName": "Scotland",
		"url": "www.orkneyharbours.com",
		"authority": "Orkney Islands Council",
		"location": "Eday",
		"lat": "59.155757489096260000000000000000",
		"lng": "-2.747697830200195300000000000000",
		"zoom": "17",
		"wpi": null,
		"size": "1",
		"thumb": "1",
		"review": "0",
		"uri": "GBR_Backaland_Pier_4501.php"
	}, {
		"id": "4467",
		"name": "Hound Point Marine Terminal",
		"asciiName": "",
		"a3": "GBR",
		"stateCode": "",
		"stateName": "",
		"url": "www.bp.com",
		"authority": "BP",
		"location": "Edinburgh",
		"lat": "56.005699945445190000000000000000",
		"lng": "-3.359370231628418000000000000000",
		"zoom": "15",
		"wpi": "31972",
		"size": "1",
		"thumb": "1",
		"review": "0",
		"uri": "GBR_Hound_Point_Marine_Terminal_4467.php"
	}, {
		"id": "4502",
		"name": "Skaill Pier",
		"asciiName": null,
		"a3": "GBR",
		"stateCode": "",
		"stateName": "Scotland",
		"url": "www.orkneyharbours.com",
		"authority": "Orkney Islands Council",
		"location": "Egilsay",
		"lat": "59.155146901683150000000000000000",
		"lng": "-2.944014072418213000000000000000",
		"zoom": "17",
		"wpi": null,
		"size": "1",
		"thumb": "1",
		"review": "0",
		"uri": "GBR_Skaill_Pier_4502.php"
	}, {
		"id": "3828",
		"name": "Eling Harbor",
		"asciiName": null,
		"a3": "GBR",
		"stateCode": "",
		"stateName": "",
		"url": "",
		"authority": "",
		"location": "Eling",
		"lat": "50.911246002174230000000000000000",
		"lng": "-1.481287479400634800000000000000",
		"zoom": "17",
		"wpi": null,
		"size": "1",
		"thumb": "1",
		"review": "0",
		"uri": "GBR_Eling_Harbor_3828.php"
	}, {
		"id": "3864",
		"name": "Eoligarry Harbor",
		"asciiName": null,
		"a3": "GBR",
		"stateCode": "",
		"stateName": "Scotland",
		"url": "www.cne-siar.gov.uk\/harbourmaster",
		"authority": "",
		"location": "Eoligarry",
		"lat": "57.041704595398620000000000000000",
		"lng": "-7.420878410339355500000000000000",
		"zoom": "17",
		"wpi": null,
		"size": "1",
		"thumb": "1",
		"review": "0",
		"uri": "GBR_Eoligarry_Harbor_3864.php"
	}, {
		"id": "4494",
		"name": "Eyemouth Harbor",
		"asciiName": null,
		"a3": "GBR",
		"stateCode": "",
		"stateName": "",
		"url": "",
		"authority": "",
		"location": "Eyemouth",
		"lat": "55.872481881824870000000000000000",
		"lng": "-2.087144851684570300000000000000",
		"zoom": "15",
		"wpi": "31880",
		"size": "1",
		"thumb": "1",
		"review": "0",
		"uri": "GBR_Eyemouth_Harbor_4494.php"
	}, {
		"id": "2150",
		"name": "Fair Isle Harbour",
		"asciiName": null,
		"a3": "GBR",
		"stateCode": "",
		"stateName": "Shetland",
		"url": "www.shetland.gov.uk\/ports",
		"authority": "Sullom Voe Harbour Authority",
		"location": "Fair Isle",
		"lat": "59.538593379639780000000000000000",
		"lng": "-1.603875160217285200000000000000",
		"zoom": "16",
		"wpi": null,
		"size": "1",
		"thumb": "1",
		"review": "0",
		"uri": "GBR_Fair_Isle_Harbour_2150.php"
	}, {
		"id": "3838",
		"name": "Findhorn Harbor",
		"asciiName": null,
		"a3": "GBR",
		"stateCode": "",
		"stateName": "Scotland",
		"url": "",
		"authority": "Findhorn Fairways Committee",
		"location": "Findhorn",
		"lat": "57.659332899714370000000000000000",
		"lng": "-3.613418340682983400000000000000",
		"zoom": "17",
		"wpi": null,
		"size": "1",
		"thumb": "1",
		"review": "0",
		"uri": "GBR_Findhorn_Harbor_3838.php"
	}, {
		"id": "4503",
		"name": "Finstown Amenity Slipway",
		"asciiName": null,
		"a3": "GBR",
		"stateCode": "",
		"stateName": "Scotland",
		"url": "www.orkneyharbours.com",
		"authority": "Orkney Islands Council",
		"location": "Finstown",
		"lat": "59.006141447126325000000000000000",
		"lng": "-3.109989166259765600000000000000",
		"zoom": "15",
		"wpi": null,
		"size": "1",
		"thumb": "1",
		"review": "0",
		"uri": "GBR_Finstown_Amenity_Slipway_4503.php"
	}, {
		"id": "4504",
		"name": "Flotta Gibralter Pier",
		"asciiName": null,
		"a3": "GBR",
		"stateCode": "",
		"stateName": "Scotland",
		"url": "www.orkneyharbours.com",
		"authority": "Orkney Islands Council",
		"location": "Flotta",
		"lat": "58.840842573722140000000000000000",
		"lng": "-3.124837875366211000000000000000",
		"zoom": "14",
		"wpi": null,
		"size": "1",
		"thumb": "1",
		"review": "0",
		"uri": "GBR_Flotta_Gibralter_Pier_4504.php"
	}, {
		"id": "3813",
		"name": "Garlieston Harbor",
		"asciiName": null,
		"a3": "GBR",
		"stateCode": "",
		"stateName": "Scotland",
		"url": "",
		"authority": "",
		"location": "Garlieston",
		"lat": "54.787936926443500000000000000000",
		"lng": "-4.363567829132080000000000000000",
		"zoom": "17",
		"wpi": null,
		"size": "1",
		"thumb": "1",
		"review": "0",
		"uri": "GBR_Garlieston_Harbor_3813.php"
	}, {
		"id": "4505",
		"name": "Graemsay Pier",
		"asciiName": null,
		"a3": "GBR",
		"stateCode": "",
		"stateName": "Scotland",
		"url": "www.orkneyharbours.com",
		"authority": "Orkney Islands Council",
		"location": "Graemsay",
		"lat": "58.931232540469836000000000000000",
		"lng": "-3.267445564270019500000000000000",
		"zoom": "17",
		"wpi": null,
		"size": "1",
		"thumb": "1",
		"review": "0",
		"uri": "GBR_Graemsay_Pier_4505.php"
	}, {
		"id": "2852",
		"name": "Port of Gravir",
		"asciiName": null,
		"a3": "GBR",
		"stateCode": "",
		"stateName": "Isle of Benbecula",
		"url": "www.cne-siar.gov.uk\/harbourmaster",
		"authority": "Comhairle Nan Eilean Siar",
		"location": "Gravir",
		"lat": "58.048000865186780000000000000000",
		"lng": "-6.424040794372559000000000000000",
		"zoom": "18",
		"wpi": null,
		"size": "1",
		"thumb": "1",
		"review": "0",
		"uri": "GBR_Port_of_Gravir_2852.php"
	}, {
		"id": "2841",
		"name": "Port of Griminish",
		"asciiName": null,
		"a3": "GBR",
		"stateCode": "",
		"stateName": "Isle of Benbecula",
		"url": "www.cne-siar.gov.uk\/harbourmaster",
		"authority": "Comhairle Nan Eilean Siar",
		"location": "Griminish",
		"lat": "57.654040774024644000000000000000",
		"lng": "-7.438666820526123000000000000000",
		"zoom": "17",
		"wpi": null,
		"size": "1",
		"thumb": "1",
		"review": "0",
		"uri": "GBR_Port_of_Griminish_2841.php"
	}, {
		"id": "3865",
		"name": "Haun Harbor",
		"asciiName": null,
		"a3": "GBR",
		"stateCode": "",
		"stateName": "Scotland",
		"url": "www.cne-siar.gov.uk\/harbourmaster",
		"authority": "Comhairle Nan Eilean Siar",
		"location": "Haun",
		"lat": "57.087034621797436000000000000000",
		"lng": "-7.302496433258057000000000000000",
		"zoom": "17",
		"wpi": null,
		"size": "1",
		"thumb": "1",
		"review": "0",
		"uri": "GBR_Haun_Harbor_3865.php"
	}, {
		"id": "4507",
		"name": "Houton Terminal",
		"asciiName": null,
		"a3": "GBR",
		"stateCode": "",
		"stateName": "Scotland",
		"url": "www.orkneyharbours.com",
		"authority": "Orkney Islands Council",
		"location": "Houton",
		"lat": "58.917454251187365000000000000000",
		"lng": "-3.183588981628418000000000000000",
		"zoom": "16",
		"wpi": null,
		"size": "1",
		"thumb": "1",
		"review": "0",
		"uri": "GBR_Houton_Terminal_4507.php"
	}, {
		"id": "4465",
		"name": "Inverkeithing Harbor",
		"asciiName": "",
		"a3": "GBR",
		"stateCode": "",
		"stateName": "",
		"url": "",
		"authority": "",
		"location": "Inverkeithing",
		"lat": "56.024674867714786000000000000000",
		"lng": "-3.395891189575195300000000000000",
		"zoom": "15",
		"wpi": "31960",
		"size": "1",
		"thumb": "1",
		"review": "0",
		"uri": "GBR_Inverkeithing_Harbor_4465.php"
	}, {
		"id": "2802",
		"name": "Johnshaven Harbour",
		"asciiName": null,
		"a3": "GBR",
		"stateCode": "",
		"stateName": "Johnshaven",
		"url": "www.aberdeenshire.gov.uk\/harbours",
		"authority": "Aberdeenshire Council",
		"location": "Johnshaven",
		"lat": "56.793722392993445000000000000000",
		"lng": "-2.336118221282959000000000000000",
		"zoom": "17",
		"wpi": null,
		"size": "1",
		"thumb": "1",
		"review": "0",
		"uri": "GBR_Johnshaven_Harbour_2802.php"
	}, {
		"id": "4515",
		"name": "Kettletoft Pier",
		"asciiName": null,
		"a3": "GBR",
		"stateCode": "",
		"stateName": "Scotland",
		"url": "www.orkneyharbours.com",
		"authority": "Orkney Islands Council",
		"location": "Kettletoft",
		"lat": "59.231166379883140000000000000000",
		"lng": "-2.598545551300049000000000000000",
		"zoom": "17",
		"wpi": "32420",
		"size": "1",
		"thumb": "1",
		"review": "0",
		"uri": "GBR_Kettletoft_Pier_4515.php"
	}, {
		"id": "4527",
		"name": "Kirkcudbright Harbor",
		"asciiName": null,
		"a3": "GBR",
		"stateCode": "",
		"stateName": "",
		"url": "",
		"authority": "",
		"location": "Kirkcudbright",
		"lat": "54.837749180121890000000000000000",
		"lng": "-4.055113792419434000000000000000",
		"zoom": "16",
		"wpi": null,
		"size": "1",
		"thumb": "1",
		"review": "0",
		"uri": "GBR_Kirkcudbright_Harbor_4527.php"
	}, {
		"id": "2836",
		"name": "Port of Kirkibost",
		"asciiName": null,
		"a3": "GBR",
		"stateCode": "",
		"stateName": "Isle of Benbecula",
		"url": "www.cne-siar.gov.uk\/harbourmaster",
		"authority": "Comhairle Nan Eilean Siar",
		"location": "Kirkibost",
		"lat": "58.222217758503600000000000000000",
		"lng": "-6.797854900360107000000000000000",
		"zoom": "17",
		"wpi": null,
		"size": "1",
		"thumb": "1",
		"review": "0",
		"uri": "GBR_Port_of_Kirkibost_2836.php"
	}, {
		"id": "5053",
		"name": "Knightstone Harbour",
		"asciiName": "",
		"a3": "GBR",
		"stateCode": "",
		"stateName": "",
		"url": "www.n-somerset.gov.uk\/Leisure\/parksandopenspaces\/thecoast\/knightstoneharbour.htm",
		"authority": "",
		"location": "Knightstone",
		"lat": "51.351508859100870000000000000000",
		"lng": "-2.988688945770263700000000000000",
		"zoom": "17",
		"wpi": null,
		"size": "1",
		"thumb": "1",
		"review": "0",
		"uri": "GBR_Knightstone_Harbour_5053.php"
	}, {
		"id": "4530",
		"name": "Kyleakin Harbor",
		"asciiName": null,
		"a3": "GBR",
		"stateCode": "",
		"stateName": "",
		"url": "",
		"authority": "",
		"location": "Kyleakin",
		"lat": "57.273097846924216000000000000000",
		"lng": "-5.724381208419800000000000000000",
		"zoom": "17",
		"wpi": "32910",
		"size": "1",
		"thumb": "1",
		"review": "0",
		"uri": "GBR_Kyleakin_Harbor_4530.php"
	}, {
		"id": "2892",
		"name": "Lamlash Ferry Landing",
		"asciiName": null,
		"a3": "GBR",
		"stateCode": "",
		"stateName": "Isle of Arran",
		"url": "",
		"authority": "Lamlash Harbour",
		"location": "Lamlash",
		"lat": "55.534823944771674000000000000000",
		"lng": "-5.123931169509888000000000000000",
		"zoom": "17",
		"wpi": "33310",
		"size": "1",
		"thumb": "1",
		"review": "0",
		"uri": "GBR_Lamlash_Ferry_Landing_2892.php"
	}, {
		"id": "4486",
		"name": "Largs Ferry Terminal",
		"asciiName": null,
		"a3": "GBR",
		"stateCode": "",
		"stateName": "",
		"url": "",
		"authority": "",
		"location": "Largs",
		"lat": "55.795153702274450000000000000000",
		"lng": "-4.871792793273926000000000000000",
		"zoom": "17",
		"wpi": "33500",
		"size": "1",
		"thumb": "1",
		"review": "0",
		"uri": "GBR_Largs_Ferry_Terminal_4486.php"
	}, {
		"id": "2854",
		"name": "Port of Leverburgh",
		"asciiName": null,
		"a3": "GBR",
		"stateCode": "",
		"stateName": "Isle of Benbecula",
		"url": "www.cne-siar.gov.uk\/harbourmaster",
		"authority": "Comhairle Nan Eilean Siar",
		"location": "Leverburgh",
		"lat": "57.766798839917960000000000000000",
		"lng": "-7.025703191757202000000000000000",
		"zoom": "17",
		"wpi": null,
		"size": "1",
		"thumb": "1",
		"review": "0",
		"uri": "GBR_Port_of_Leverburgh_2854.php"
	}, {
		"id": "3841",
		"name": "Littleferry Harbor",
		"asciiName": null,
		"a3": "GBR",
		"stateCode": "",
		"stateName": "Scotland",
		"url": "",
		"authority": "Highland Council",
		"location": "Littleferry",
		"lat": "57.933803112989930000000000000000",
		"lng": "-4.018431901931763000000000000000",
		"zoom": "17",
		"wpi": null,
		"size": "1",
		"thumb": "1",
		"review": "0",
		"uri": "GBR_Littleferry_Harbor_3841.php"
	}, {
		"id": "4531",
		"name": "Loch Gairloch Harbor",
		"asciiName": null,
		"a3": "GBR",
		"stateCode": "",
		"stateName": "",
		"url": "",
		"authority": "",
		"location": "Loch Gairloch",
		"lat": "57.710704417364020000000000000000",
		"lng": "-5.684105157852173000000000000000",
		"zoom": "17",
		"wpi": "32850",
		"size": "1",
		"thumb": "1",
		"review": "0",
		"uri": "GBR_Loch_Gairloch_Harbor_4531.php"
	}, {
		"id": "2928",
		"name": "Port of Lochaline",
		"asciiName": null,
		"a3": "GBR",
		"stateCode": "",
		"stateName": "Argyll",
		"url": "",
		"authority": "Tilcon Lochaline Ltd",
		"location": "Lochaline",
		"lat": "56.536517862614026000000000000000",
		"lng": "-5.775300264358520500000000000000",
		"zoom": "17",
		"wpi": null,
		"size": "1",
		"thumb": "1",
		"review": "0",
		"uri": "GBR_Port_of_Lochaline_2928.php"
	}, {
		"id": "2810",
		"name": "Lochgilphead Harbour",
		"asciiName": null,
		"a3": "GBR",
		"stateCode": "",
		"stateName": "Argyll",
		"url": "",
		"authority": "Argyll and Bute Council",
		"location": "Lochgilphead",
		"lat": "56.033703272743030000000000000000",
		"lng": "-5.431258678436279000000000000000",
		"zoom": "16",
		"wpi": null,
		"size": "1",
		"thumb": "1",
		"review": "0",
		"uri": "GBR_Lochgilphead_Harbour_2810.php"
	}, {
		"id": "4509",
		"name": "Longhope Pier",
		"asciiName": null,
		"a3": "GBR",
		"stateCode": "",
		"stateName": "Scotland",
		"url": "www.orkneyharbours.com",
		"authority": "Orkney Islands Council",
		"location": "Longhope",
		"lat": "58.800905845688800000000000000000",
		"lng": "-3.206484317779541000000000000000",
		"zoom": "16",
		"wpi": "32460",
		"size": "1",
		"thumb": "1",
		"review": "0",
		"uri": "GBR_Longhope_Pier_4509.php"
	}, {
		"id": "4516",
		"name": "Loth Pier",
		"asciiName": null,
		"a3": "GBR",
		"stateCode": "",
		"stateName": "Scotland",
		"url": "www.orkneyharbours.com",
		"authority": "Orkney Islands Council",
		"location": "Loth",
		"lat": "59.191114454605160000000000000000",
		"lng": "-2.697905302047729500000000000000",
		"zoom": "17",
		"wpi": null,
		"size": "1",
		"thumb": "1",
		"review": "0",
		"uri": "GBR_Loth_Pier_4516.php"
	}, {
		"id": "3866",
		"name": "Ludag Harbor",
		"asciiName": null,
		"a3": "GBR",
		"stateCode": "",
		"stateName": "Scotland",
		"url": "www.cne-siar.gov.uk\/harbourmaster",
		"authority": "Comhairle Nan Eilean Siar",
		"location": "Ludag",
		"lat": "57.103394889608644000000000000000",
		"lng": "-7.325563430786133000000000000000",
		"zoom": "17",
		"wpi": null,
		"size": "1",
		"thumb": "1",
		"review": "0",
		"uri": "GBR_Ludag_Harbor_3866.php"
	}, {
		"id": "4533",
		"name": "Lydney Harbor",
		"asciiName": "",
		"a3": "GBR",
		"stateCode": "",
		"stateName": "",
		"url": "",
		"authority": "",
		"location": "Lydney",
		"lat": "51.709866128926144000000000000000",
		"lng": "-2.509045600891113300000000000000",
		"zoom": "16",
		"wpi": null,
		"size": "1",
		"thumb": "1",
		"review": "0",
		"uri": "GBR_Lydney_Harbor_4533.php"
	}, {
		"id": "4508",
		"name": "Lyness Pier",
		"asciiName": null,
		"a3": "GBR",
		"stateCode": "",
		"stateName": "Scotland",
		"url": "www.orkneyharbours.com",
		"authority": "Orkney Islands Council",
		"location": "Lyness",
		"lat": "58.833580733683470000000000000000",
		"lng": "-3.190712928771972700000000000000",
		"zoom": "15",
		"wpi": "32490",
		"size": "1",
		"thumb": "1",
		"review": "0",
		"uri": "GBR_Lyness_Pier_4508.php"
	}, {
		"id": "3867",
		"name": "Meanish Harbor",
		"asciiName": null,
		"a3": "GBR",
		"stateCode": "",
		"stateName": "Scotland",
		"url": "",
		"authority": "Highland Council",
		"location": "Meanish",
		"lat": "57.455859328044750000000000000000",
		"lng": "-6.746013164520264000000000000000",
		"zoom": "17",
		"wpi": null,
		"size": "1",
		"thumb": "1",
		"review": "0",
		"uri": "GBR_Meanish_Harbor_3867.php"
	}, {
		"id": "4475",
		"name": "Mevagissey Harbor",
		"asciiName": null,
		"a3": "GBR",
		"stateCode": "",
		"stateName": "",
		"url": "",
		"authority": "",
		"location": "Mevagissey",
		"lat": "50.269284823881620000000000000000",
		"lng": "-4.784460067749023000000000000000",
		"zoom": "17",
		"wpi": "35300",
		"size": "1",
		"thumb": "1",
		"review": "0",
		"uri": "GBR_Mevagissey_Harbor_4475.php"
	}, {
		"id": "2837",
		"name": "Port of Miavaig",
		"asciiName": null,
		"a3": "GBR",
		"stateCode": "",
		"stateName": "Isle of Benbecula",
		"url": "www.cne-siar.gov.uk\/harbourmaster",
		"authority": "Comhairle Nan Eilean Siar",
		"location": "Miavaig",
		"lat": "58.201888579844810000000000000000",
		"lng": "-6.953015327453613000000000000000",
		"zoom": "16",
		"wpi": null,
		"size": "1",
		"thumb": "1",
		"review": "0",
		"uri": "GBR_Port_of_Miavaig_2837.php"
	}, {
		"id": "2145",
		"name": "Mid Yell Harbour",
		"asciiName": null,
		"a3": "GBR",
		"stateCode": "",
		"stateName": "Shetland",
		"url": "www.shetland.gov.uk\/ports",
		"authority": "Sullom Voe Harbour Authority",
		"location": "Mid Yell",
		"lat": "60.598477950659834000000000000000",
		"lng": "-1.059000492095947300000000000000",
		"zoom": "17",
		"wpi": null,
		"size": "1",
		"thumb": "1",
		"review": "0",
		"uri": "GBR_Mid_Yell_Harbour_2145.php"
	}, {
		"id": "4487",
		"name": "Millport Harbor",
		"asciiName": null,
		"a3": "GBR",
		"stateCode": "",
		"stateName": "",
		"url": "",
		"authority": "",
		"location": "Millport",
		"lat": "55.750931611695684000000000000000",
		"lng": "-4.932131767272949000000000000000",
		"zoom": "17",
		"wpi": "33520",
		"size": "1",
		"thumb": "1",
		"review": "0",
		"uri": "GBR_Millport_Harbor_4487.php"
	}, {
		"id": "4510",
		"name": "Moaness Pier",
		"asciiName": null,
		"a3": "GBR",
		"stateCode": "",
		"stateName": "Scotland",
		"url": "www.orkneyharbours.com",
		"authority": "Orkney Islands Council",
		"location": "Moaness",
		"lat": "58.916357511270270000000000000000",
		"lng": "-3.312013149261474600000000000000",
		"zoom": "16",
		"wpi": null,
		"size": "1",
		"thumb": "1",
		"review": "0",
		"uri": "GBR_Moaness_Pier_4510.php"
	}, {
		"id": "4537",
		"name": "Newburgh Harbor",
		"asciiName": null,
		"a3": "GBR",
		"stateCode": "",
		"stateName": "",
		"url": "",
		"authority": "",
		"location": "Newburgh",
		"lat": "56.353672065585656000000000000000",
		"lng": "-3.238048553466797000000000000000",
		"zoom": "15",
		"wpi": null,
		"size": "1",
		"thumb": "1",
		"review": "0",
		"uri": "GBR_Newburgh_Harbor_4537.php"
	}, {
		"id": "4512",
		"name": "North Ronaldsay Pier",
		"asciiName": null,
		"a3": "GBR",
		"stateCode": "",
		"stateName": "Scotland",
		"url": "www.orkneyharbours.com",
		"authority": "Orkney Islands Council",
		"location": "North Ronaldsay",
		"lat": "59.355530487027200000000000000000",
		"lng": "-2.441196441650390600000000000000",
		"zoom": "17",
		"wpi": null,
		"size": "1",
		"thumb": "1",
		"review": "0",
		"uri": "GBR_North_Ronaldsay_Pier_4512.php"
	}, {
		"id": "4540",
		"name": "Norwich Harbor",
		"asciiName": null,
		"a3": "GBR",
		"stateCode": "",
		"stateName": "",
		"url": "",
		"authority": "",
		"location": "Norwich",
		"lat": "52.629468385905920000000000000000",
		"lng": "1.307201385498046900000000000000",
		"zoom": "14",
		"wpi": null,
		"size": "1",
		"thumb": "1",
		"review": "0",
		"uri": "GBR_Norwich_Harbor_4540.php"
	}, {
		"id": "2149",
		"name": "Out Skerries Harbour",
		"asciiName": null,
		"a3": "GBR",
		"stateCode": "",
		"stateName": "Shetland",
		"url": "www.shetland.gov.uk\/ports",
		"authority": "Sullom Voe Harbour Authority",
		"location": "Out Skerries",
		"lat": "60.422633865781980000000000000000",
		"lng": "-0.751426219940185500000000000000",
		"zoom": "16",
		"wpi": null,
		"size": "1",
		"thumb": "1",
		"review": "0",
		"uri": "GBR_Out_Skerries_Harbour_2149.php"
	}, {
		"id": "4513",
		"name": "Moclett Pier",
		"asciiName": null,
		"a3": "GBR",
		"stateCode": "",
		"stateName": "Scotland",
		"url": "www.orkneyharbours.com",
		"authority": "Orkney Islands Council",
		"location": "Papa Westray",
		"lat": "59.327010766280640000000000000000",
		"lng": "-2.890884876251220700000000000000",
		"zoom": "17",
		"wpi": null,
		"size": "1",
		"thumb": "1",
		"review": "0",
		"uri": "GBR_Moclett_Pier_4513.php"
	}, {
		"id": "4491",
		"name": "Port of Partington",
		"asciiName": null,
		"a3": "GBR",
		"stateCode": "",
		"stateName": "Cheshire",
		"url": "www.shipcanal.co.uk",
		"authority": "Manchester Ship Canal Co",
		"location": "Partington",
		"lat": "53.426591267356244000000000000000",
		"lng": "-2.422764301300049000000000000000",
		"zoom": "16",
		"wpi": null,
		"size": "1",
		"thumb": "1",
		"review": "0",
		"uri": "GBR_Port_of_Partington_4491.php"
	}, {
		"id": "4522",
		"name": "Pierowall Pier",
		"asciiName": null,
		"a3": "GBR",
		"stateCode": "",
		"stateName": "Scotland",
		"url": "www.orkneyharbours.com",
		"authority": "Orkney Islands Council",
		"location": "Pierowall",
		"lat": "59.323469433252670000000000000000",
		"lng": "-2.975320816040039000000000000000",
		"zoom": "16",
		"wpi": "32410",
		"size": "1",
		"thumb": "1",
		"review": "0",
		"uri": "GBR_Pierowall_Pier_4522.php"
	}, {
		"id": "4529",
		"name": "Plockton Harbor",
		"asciiName": null,
		"a3": "GBR",
		"stateCode": "",
		"stateName": "",
		"url": "",
		"authority": "",
		"location": "Plockton",
		"lat": "57.337420096258010000000000000000",
		"lng": "-5.649912357330322000000000000000",
		"zoom": "16",
		"wpi": "32890",
		"size": "1",
		"thumb": "1",
		"review": "0",
		"uri": "GBR_Plockton_Harbor_4529.php"
	}, {
		"id": "4544",
		"name": "Port Askaig Harbor",
		"asciiName": null,
		"a3": "GBR",
		"stateCode": "",
		"stateName": "",
		"url": "",
		"authority": "",
		"location": "Port Askaig",
		"lat": "55.848270853306296000000000000000",
		"lng": "-6.104782819747925000000000000000",
		"zoom": "17",
		"wpi": null,
		"size": "1",
		"thumb": "1",
		"review": "0",
		"uri": "GBR_Port_Askaig_Harbor_4544.php"
	}, {
		"id": "4466",
		"name": "Port Edgar",
		"asciiName": "",
		"a3": "GBR",
		"stateCode": "",
		"stateName": "",
		"url": "",
		"authority": "",
		"location": "Port Edgar",
		"lat": "55.994972952609125000000000000000",
		"lng": "-3.412756919860840000000000000000",
		"zoom": "15",
		"wpi": "31970",
		"size": "1",
		"thumb": "1",
		"review": "0",
		"uri": "GBR_Port_Edgar_4466.php"
	}, {
		"id": "4545",
		"name": "Port Ellen Harbor",
		"asciiName": null,
		"a3": "GBR",
		"stateCode": "",
		"stateName": "",
		"url": "",
		"authority": "",
		"location": "Port Ellen",
		"lat": "55.627462924776744000000000000000",
		"lng": "-6.189465522766113000000000000000",
		"zoom": "16",
		"wpi": "33280",
		"size": "1",
		"thumb": "1",
		"review": "0",
		"uri": "GBR_Port_Ellen_Harbor_4545.php"
	}, {
		"id": "3817",
		"name": "Port Logan Harbor",
		"asciiName": null,
		"a3": "GBR",
		"stateCode": "",
		"stateName": "Scotland",
		"url": "",
		"authority": "",
		"location": "Port Logan",
		"lat": "54.723721768364040000000000000000",
		"lng": "-4.958953857421875000000000000000",
		"zoom": "16",
		"wpi": null,
		"size": "1",
		"thumb": "1",
		"review": "0",
		"uri": "GBR_Port_Logan_Harbor_3817.php"
	}, {
		"id": "2845",
		"name": "Port of Port of Ness",
		"asciiName": null,
		"a3": "GBR",
		"stateCode": "",
		"stateName": "Isle of Benbecula",
		"url": "www.cne-siar.gov.uk\/harbourmaster",
		"authority": "Comhairle Nan Eilean Siar",
		"location": "Port of Ness",
		"lat": "58.492550013058830000000000000000",
		"lng": "-6.225471496582031000000000000000",
		"zoom": "15",
		"wpi": null,
		"size": "1",
		"thumb": "1",
		"review": "0",
		"uri": "GBR_Port_of_Port_of_Ness_2845.php"
	}, {
		"id": "3846",
		"name": "Porthgain Harbor",
		"asciiName": null,
		"a3": "GBR",
		"stateCode": "",
		"stateName": "Wales",
		"url": "",
		"authority": "",
		"location": "Porthgain",
		"lat": "51.948530417269730000000000000000",
		"lng": "-5.182424783706665000000000000000",
		"zoom": "17",
		"wpi": null,
		"size": "1",
		"thumb": "1",
		"review": "0",
		"uri": "GBR_Porthgain_Harbor_3846.php"
	}, {
		"id": "2848",
		"name": "Port of Portnaguran",
		"asciiName": null,
		"a3": "GBR",
		"stateCode": "",
		"stateName": "Isle of Benbecula",
		"url": "www.cne-siar.gov.uk\/harbourmaster",
		"authority": "Comhairle Nan Eilean Siar",
		"location": "Portnaguran",
		"lat": "58.257482188969080000000000000000",
		"lng": "-6.164504885673523000000000000000",
		"zoom": "18",
		"wpi": null,
		"size": "1",
		"thumb": "1",
		"review": "0",
		"uri": "GBR_Port_of_Portnaguran_2848.php"
	}, {
		"id": "4546",
		"name": "Portree Harbor",
		"asciiName": null,
		"a3": "GBR",
		"stateCode": "",
		"stateName": "",
		"url": "",
		"authority": "",
		"location": "Portree",
		"lat": "57.411564591444694000000000000000",
		"lng": "-6.189272403717041000000000000000",
		"zoom": "16",
		"wpi": "32930",
		"size": "1",
		"thumb": "1",
		"review": "0",
		"uri": "GBR_Portree_Harbor_4546.php"
	}, {
		"id": "4548",
		"name": "Portrush Harbor",
		"asciiName": null,
		"a3": "GBR",
		"stateCode": "",
		"stateName": "",
		"url": "",
		"authority": "",
		"location": "Portrush",
		"lat": "55.206463397344620000000000000000",
		"lng": "-6.658154726028442000000000000000",
		"zoom": "16",
		"wpi": "33810",
		"size": "1",
		"thumb": "1",
		"review": "0",
		"uri": "GBR_Portrush_Harbor_4548.php"
	}, {
		"id": "2803",
		"name": "Portsoy Harbour",
		"asciiName": null,
		"a3": "GBR",
		"stateCode": "",
		"stateName": "Banffshire",
		"url": "www.aberdeenshire.gov.uk\/harbours",
		"authority": "Aberdeenshire Council",
		"location": "Portsoy",
		"lat": "57.685523864933884000000000000000",
		"lng": "-2.689601182937622000000000000000",
		"zoom": "17",
		"wpi": "32270",
		"size": "1",
		"thumb": "1",
		"review": "0",
		"uri": "GBR_Portsoy_Harbour_2803.php"
	}, {
		"id": "4523",
		"name": "Rapness Terminal",
		"asciiName": null,
		"a3": "GBR",
		"stateCode": "",
		"stateName": "Scotland",
		"url": "www.orkneyharbours.com",
		"authority": "Orkney Islands Council",
		"location": "Rapness",
		"lat": "59.248725411714380000000000000000",
		"lng": "-2.858891487121582000000000000000",
		"zoom": "16",
		"wpi": null,
		"size": "1",
		"thumb": "1",
		"review": "0",
		"uri": "GBR_Rapness_Terminal_4523.php"
	}, {
		"id": "4485",
		"name": "Rothesay Harbor",
		"asciiName": "",
		"a3": "GBR",
		"stateCode": "",
		"stateName": "",
		"url": "",
		"authority": "",
		"location": "Rothesay",
		"lat": "55.838427988680536000000000000000",
		"lng": "-5.053110122680664000000000000000",
		"zoom": "17",
		"wpi": "33370",
		"size": "1",
		"thumb": "1",
		"review": "0",
		"uri": "GBR_Rothesay_Harbor_4485.php"
	}, {
		"id": "4514",
		"name": "Trumland Pier",
		"asciiName": null,
		"a3": "GBR",
		"stateCode": "",
		"stateName": "Scotland",
		"url": "www.orkneyharbours.com",
		"authority": "Orkney Islands Council",
		"location": "Rousay",
		"lat": "59.130411705588610000000000000000",
		"lng": "-2.986049652099609400000000000000",
		"zoom": "17",
		"wpi": null,
		"size": "1",
		"thumb": "1",
		"review": "0",
		"uri": "GBR_Trumland_Pier_4514.php"
	}, {
		"id": "2806",
		"name": "Sandhaven Harbour",
		"asciiName": null,
		"a3": "GBR",
		"stateCode": "",
		"stateName": "Fraserburgh",
		"url": "www.sandhavenharbour.org.uk",
		"authority": "Sandhaven and Pitullie Harbour Trust",
		"location": "Sandhaven",
		"lat": "57.696396305257830000000000000000",
		"lng": "-2.056975364685058600000000000000",
		"zoom": "16",
		"wpi": null,
		"size": "1",
		"thumb": "1",
		"review": "0",
		"uri": "GBR_Sandhaven_Harbour_2806.php"
	}, {
		"id": "2839",
		"name": "Port of Scalpay",
		"asciiName": null,
		"a3": "GBR",
		"stateCode": "",
		"stateName": "Isle of Benbecula",
		"url": "www.cne-siar.gov.uk\/harbourmaster",
		"authority": "Comhairle Nan Eilean Siar",
		"location": "Scalpay",
		"lat": "57.875617705943640000000000000000",
		"lng": "-6.696124076843262000000000000000",
		"zoom": "15",
		"wpi": null,
		"size": "1",
		"thumb": "1",
		"review": "0",
		"uri": "GBR_Port_of_Scalpay_2839.php"
	}, {
		"id": "3832",
		"name": "Seaton Sluice Harbor",
		"asciiName": null,
		"a3": "GBR",
		"stateCode": "",
		"stateName": "",
		"url": "www.seaton-sluice.co.uk",
		"authority": "Blyth Valley Borough Council",
		"location": "Seaton Sluice",
		"lat": "55.084717329610310000000000000000",
		"lng": "-1.474120616912841800000000000000",
		"zoom": "17",
		"wpi": null,
		"size": "1",
		"thumb": "1",
		"review": "0",
		"uri": "GBR_Seaton_Sluice_Harbor_3832.php"
	}, {
		"id": "3858",
		"name": "Port of Selby",
		"asciiName": null,
		"a3": "GBR",
		"stateCode": "",
		"stateName": "",
		"url": "",
		"authority": "General Freight Co. Ltd",
		"location": "Selby",
		"lat": "53.785840014245370000000000000000",
		"lng": "-1.066038608551025400000000000000",
		"zoom": "17",
		"wpi": null,
		"size": "1",
		"thumb": "1",
		"review": "0",
		"uri": "GBR_Port_of_Selby_3858.php"
	}, {
		"id": "4558",
		"name": "Shotton Harbor",
		"asciiName": null,
		"a3": "GBR",
		"stateCode": "",
		"stateName": "",
		"url": "",
		"authority": "",
		"location": "Shotton",
		"lat": "53.221169348323876000000000000000",
		"lng": "-3.054971694946289000000000000000",
		"zoom": "16",
		"wpi": null,
		"size": "1",
		"thumb": "1",
		"review": "0",
		"uri": "GBR_Shotton_Harbor_4558.php"
	}, {
		"id": "2846",
		"name": "Port of Skigersta",
		"asciiName": null,
		"a3": "GBR",
		"stateCode": "",
		"stateName": "Isle of Benbecula",
		"url": "www.cne-siar.gov.uk\/harbourmaster",
		"authority": "Comhairle Nan Eilean Siar",
		"location": "Skigersta",
		"lat": "58.478109043674690000000000000000",
		"lng": "-6.205837726593018000000000000000",
		"zoom": "17",
		"wpi": null,
		"size": "1",
		"thumb": "1",
		"review": "0",
		"uri": "GBR_Port_of_Skigersta_2846.php"
	}, {
		"id": "4518",
		"name": "St Margaret's Hope Pier",
		"asciiName": null,
		"a3": "GBR",
		"stateCode": "",
		"stateName": "Scotland",
		"url": "www.orkneyharbours.com",
		"authority": "Orkney Islands Council",
		"location": "St Margaret's Hope",
		"lat": "58.832159278027774000000000000000",
		"lng": "-2.962274551391601600000000000000",
		"zoom": "16",
		"wpi": "32470",
		"size": "1",
		"thumb": "1",
		"review": "0",
		"uri": "GBR_St_Margaret_s_Hope_Pier_4518.php"
	}, {
		"id": "4506",
		"name": "Holm Pier",
		"asciiName": null,
		"a3": "GBR",
		"stateCode": "",
		"stateName": "Scotland",
		"url": "www.orkneyharbours.com",
		"authority": "Orkney Islands Council",
		"location": "St Mary's",
		"lat": "58.895867554828620000000000000000",
		"lng": "-2.911720275878906200000000000000",
		"zoom": "15",
		"wpi": "32480",
		"size": "1",
		"thumb": "1",
		"review": "0",
		"uri": "GBR_Holm_Pier_4506.php"
	}, {
		"id": "2925",
		"name": "Port of St Mary's",
		"asciiName": null,
		"a3": "GBR",
		"stateCode": "",
		"stateName": "Ilses of Scilly",
		"url": "",
		"authority": "St Mary's Port Authority",
		"location": "St Mary's",
		"lat": "49.914314234652274000000000000000",
		"lng": "-6.312890052795410000000000000000",
		"zoom": "15",
		"wpi": null,
		"size": "1",
		"thumb": "1",
		"review": "0",
		"uri": "GBR_Port_of_St_Mary_s_2925.php"
	}, {
		"id": "3833",
		"name": "Staithes Harbor",
		"asciiName": null,
		"a3": "GBR",
		"stateCode": "",
		"stateName": "",
		"url": "www.staithes-town.info",
		"authority": "",
		"location": "Staithes",
		"lat": "54.559708301253394000000000000000",
		"lng": "-0.790060758590698200000000000000",
		"zoom": "17",
		"wpi": null,
		"size": "1",
		"thumb": "1",
		"review": "0",
		"uri": "GBR_Staithes_Harbor_3833.php"
	}, {
		"id": "4559",
		"name": "Strangford Harbor",
		"asciiName": null,
		"a3": "GBR",
		"stateCode": "",
		"stateName": "",
		"url": "",
		"authority": "",
		"location": "Strangford",
		"lat": "54.371433600631690000000000000000",
		"lng": "-5.554189682006836000000000000000",
		"zoom": "15",
		"wpi": null,
		"size": "1",
		"thumb": "1",
		"review": "0",
		"uri": "GBR_Strangford_Harbor_4559.php"
	}, {
		"id": "4521",
		"name": "Tingwall Pier",
		"asciiName": null,
		"a3": "GBR",
		"stateCode": "",
		"stateName": "Scotland",
		"url": "www.orkneyharbours.com",
		"authority": "Orkney Islands Council",
		"location": "Tingwall",
		"lat": "59.089210948547960000000000000000",
		"lng": "-3.043009042739868000000000000000",
		"zoom": "17",
		"wpi": null,
		"size": "1",
		"thumb": "1",
		"review": "0",
		"uri": "GBR_Tingwall_Pier_4521.php"
	}, {
		"id": "4547",
		"name": "Uig Harbor",
		"asciiName": null,
		"a3": "GBR",
		"stateCode": "",
		"stateName": "",
		"url": "",
		"authority": "",
		"location": "Uig",
		"lat": "57.585247632138590000000000000000",
		"lng": "-6.373443603515625000000000000000",
		"zoom": "15",
		"wpi": "32950",
		"size": "1",
		"thumb": "1",
		"review": "0",
		"uri": "GBR_Uig_Harbor_4547.php"
	}, {
		"id": "2142",
		"name": "Walls Harbour",
		"asciiName": null,
		"a3": "GBR",
		"stateCode": "",
		"stateName": "Shetland",
		"url": "www.shetland.gov.uk\/ports",
		"authority": "Sullom Voe Harbour Authority",
		"location": "Walls",
		"lat": "60.223953373954636000000000000000",
		"lng": "-1.569231748580932600000000000000",
		"zoom": "17",
		"wpi": null,
		"size": "1",
		"thumb": "1",
		"review": "0",
		"uri": "GBR_Walls_Harbour_2142.php"
	}, {
		"id": "4563",
		"name": "Wemyss Bay Ferry Terminal",
		"asciiName": "",
		"a3": "GBR",
		"stateCode": "",
		"stateName": "",
		"url": "",
		"authority": "",
		"location": "Wemyss Bay",
		"lat": "55.875888639224990000000000000000",
		"lng": "-4.890482425689697000000000000000",
		"zoom": "17",
		"wpi": null,
		"size": "1",
		"thumb": "1",
		"review": "0",
		"uri": "GBR_Wemyss_Bay_Ferry_Terminal_4563.php"
	}, {
		"id": "2143",
		"name": "West Burrafirth Harbour",
		"asciiName": null,
		"a3": "GBR",
		"stateCode": "",
		"stateName": "Shetland",
		"url": "www.shetland.gov.uk\/ports",
		"authority": "Sullom Voe Harbour Authority",
		"location": "West Burrafirth",
		"lat": "60.295197230801740000000000000000",
		"lng": "-1.540092229843139600000000000000",
		"zoom": "17",
		"wpi": null,
		"size": "1",
		"thumb": "1",
		"review": "0",
		"uri": "GBR_West_Burrafirth_Harbour_2143.php"
	}, {
		"id": "4520",
		"name": "Whitehall Village Pier",
		"asciiName": null,
		"a3": "GBR",
		"stateCode": "",
		"stateName": "Scotland",
		"url": "www.orkneyharbours.com",
		"authority": "Orkney Islands Council",
		"location": "Whitehall Village",
		"lat": "59.142300037195135000000000000000",
		"lng": "-2.599511146545410000000000000000",
		"zoom": "16",
		"wpi": "32430",
		"size": "1",
		"thumb": "1",
		"review": "0",
		"uri": "GBR_Whitehall_Village_Pier_4520.php"
	}, {
		"id": "4524",
		"name": "Wyre Pier",
		"asciiName": null,
		"a3": "GBR",
		"stateCode": "",
		"stateName": "Scotland",
		"url": "www.orkneyharbours.com",
		"authority": "Orkney Islands Council",
		"location": "Wyre",
		"lat": "59.124900944784120000000000000000",
		"lng": "-2.973550558090210000000000000000",
		"zoom": "17",
		"wpi": null,
		"size": "1",
		"thumb": "1",
		"review": "0",
		"uri": "GBR_Wyre_Pier_4524.php"
	}, {
		"id": "4464",
		"name": "Braefoot Bay Terminal",
		"asciiName": "",
		"a3": "GBR",
		"stateCode": "",
		"stateName": "",
		"url": "",
		"authority": "",
		"location": "Aberdour",
		"lat": "56.036184814886600000000000000000",
		"lng": "-3.312849998474121000000000000000",
		"zoom": "15",
		"wpi": "31945",
		"size": "2",
		"thumb": "1",
		"review": "457",
		"uri": "GBR_Braefoot_Bay_Terminal_4464.php"
	}, {
		"id": "2809",
		"name": "Port of Arbroath",
		"asciiName": null,
		"a3": "GBR",
		"stateCode": "",
		"stateName": "",
		"url": "",
		"authority": "Arbroath Port Authority",
		"location": "Arbroath",
		"lat": "56.554917874131180000000000000000",
		"lng": "-2.583932876586914000000000000000",
		"zoom": "16",
		"wpi": "32190",
		"size": "2",
		"thumb": "1",
		"review": "0",
		"uri": "GBR_Port_of_Arbroath_2809.php"
	}, {
		"id": "2905",
		"name": "Ardglass Harbour",
		"asciiName": null,
		"a3": "GBR",
		"stateCode": "",
		"stateName": "County Down",
		"url": "www.nifha.fsnet.co.uk",
		"authority": "Northern Ireland Fishery Harbour Authority (NIFHA)",
		"location": "Ardglass",
		"lat": "54.261414171490680000000000000000",
		"lng": "-5.605645179748535000000000000000",
		"zoom": "16",
		"wpi": "33690",
		"size": "2",
		"thumb": "1",
		"review": "0",
		"uri": "GBR_Ardglass_Harbour_2905.php"
	}, {
		"id": "4459",
		"name": "Ardrishaig Harbor",
		"asciiName": null,
		"a3": "GBR",
		"stateCode": "",
		"stateName": "",
		"url": "",
		"authority": "",
		"location": "Ardrishaig",
		"lat": "56.013389390628540000000000000000",
		"lng": "-5.445957183837891000000000000000",
		"zoom": "16",
		"wpi": "33340",
		"size": "2",
		"thumb": "1",
		"review": "0",
		"uri": "GBR_Ardrishaig_Harbor_4459.php"
	}, {
		"id": "1343",
		"name": "Ardrossan Harbour",
		"asciiName": null,
		"a3": "GBR",
		"stateCode": "",
		"stateName": "North Ayrshire",
		"url": "www.clydeport.co.uk",
		"authority": "Clydeport Ltd",
		"location": "Ardrossan",
		"lat": "55.640253631737885000000000000000",
		"lng": "-4.820079803466797000000000000000",
		"zoom": "14",
		"wpi": "33530",
		"size": "2",
		"thumb": "1",
		"review": "0",
		"uri": "GBR_Ardrossan_Harbour_1343.php"
	}, {
		"id": "3860",
		"name": "Ardveenish Harbor",
		"asciiName": null,
		"a3": "GBR",
		"stateCode": "",
		"stateName": "Scotland",
		"url": "www.cne-siar.gov.uk",
		"authority": "http:\/\/www.cne-siar.gov.uk\/",
		"location": "Ardveenish",
		"lat": "57.002746946658240000000000000000",
		"lng": "-7.409259080886841000000000000000",
		"zoom": "17",
		"wpi": null,
		"size": "2",
		"thumb": "1",
		"review": "0",
		"uri": "GBR_Ardveenish_Harbor_3860.php"
	}, {
		"id": "3834",
		"name": "Avoch Harbor",
		"asciiName": "",
		"a3": "GBR",
		"stateCode": "",
		"stateName": "Scotland",
		"url": "www.avoch.org\/content\/harbour-0",
		"authority": "Avoch Harbor Trust",
		"location": "Avoch",
		"lat": "57.566942933366010000000000000000",
		"lng": "-4.166146516799927000000000000000",
		"zoom": "17",
		"wpi": null,
		"size": "2",
		"thumb": "1",
		"review": "0",
		"uri": "GBR_Avoch_Harbor_3834.php"
	}, {
		"id": "3877",
		"name": "Axmouth Harbour",
		"asciiName": null,
		"a3": "GBR",
		"stateCode": "",
		"stateName": "",
		"url": "www.axeyachtclub.co.uk\/Harbour\/Information.htm",
		"authority": "Axmouth Harbour Management Company",
		"location": "Axmouth",
		"lat": "50.703565662367380000000000000000",
		"lng": "-3.057739734649658000000000000000",
		"zoom": "17",
		"wpi": null,
		"size": "2",
		"thumb": "1",
		"review": "0",
		"uri": "GBR_Axmouth_Harbour_3877.php"
	}, {
		"id": "902",
		"name": "Port of Ayr",
		"asciiName": null,
		"a3": "GBR",
		"stateCode": "",
		"stateName": "Scotland",
		"url": "www.abports.co.uk\/custinfo\/ports\/ayr.htm",
		"authority": "Associated British Ports",
		"location": "Ayr",
		"lat": "55.468515865359120000000000000000",
		"lng": "-4.638376235961914000000000000000",
		"zoom": "15",
		"wpi": "33560",
		"size": "2",
		"thumb": "1",
		"review": "0",
		"uri": "GBR_Port_of_Ayr_902.php"
	}, {
		"id": "3835",
		"name": "Balintore Harbor",
		"asciiName": null,
		"a3": "GBR",
		"stateCode": "",
		"stateName": "Scotland",
		"url": "",
		"authority": "Highland Council",
		"location": "Balintore",
		"lat": "57.754453509957890000000000000000",
		"lng": "-3.910371065139770500000000000000",
		"zoom": "17",
		"wpi": null,
		"size": "2",
		"thumb": "1",
		"review": "0",
		"uri": "GBR_Balintore_Harbor_3835.php"
	}, {
		"id": "2468",
		"name": "Port of Bangor",
		"asciiName": null,
		"a3": "GBR",
		"stateCode": "",
		"stateName": "",
		"url": "www.northdown.gov.uk",
		"authority": "Bangor Port Authority",
		"location": "Bangor",
		"lat": "54.665169623648445000000000000000",
		"lng": "-5.671048164367676000000000000000",
		"zoom": "16",
		"wpi": null,
		"size": "2",
		"thumb": "1",
		"review": "0",
		"uri": "GBR_Port_of_Bangor_2468.php"
	}, {
		"id": "2812",
		"name": "Barmouth Harbour",
		"asciiName": null,
		"a3": "GBR",
		"stateCode": "",
		"stateName": "Gwynedd",
		"url": "",
		"authority": "Barmouth Port Authority",
		"location": "Barmouth",
		"lat": "52.718202641688930000000000000000",
		"lng": "-4.051895141601562500000000000000",
		"zoom": "14",
		"wpi": "34820",
		"size": "2",
		"thumb": "1",
		"review": "0",
		"uri": "GBR_Barmouth_Harbour_2812.php"
	}, {
		"id": "921",
		"name": "Port of Barrow",
		"asciiName": null,
		"a3": "GBR",
		"stateCode": "",
		"stateName": "Cumbria",
		"url": "www.abports.co.uk\/custinfo\/ports\/barrow.htm",
		"authority": "Associated British Ports",
		"location": "Barrow",
		"lat": "54.102388431554930000000000000000",
		"lng": "-3.226633071899414000000000000000",
		"zoom": "14",
		"wpi": "34630",
		"size": "2",
		"thumb": "1",
		"review": "0",
		"uri": "GBR_Port_of_Barrow_921.php"
	}, {
		"id": "3850",
		"name": "Barrow Haven",
		"asciiName": null,
		"a3": "GBR",
		"stateCode": "",
		"stateName": "",
		"url": "www.oldferrywharf.com",
		"authority": "Old Ferry Wharf Ltd",
		"location": "Barrow Haven",
		"lat": "53.698828026364296000000000000000",
		"lng": "-0.393512248992919900000000000000",
		"zoom": "17",
		"wpi": null,
		"size": "2",
		"thumb": "1",
		"review": "0",
		"uri": "GBR_Barrow_Haven_3850.php"
	}, {
		"id": "2885",
		"name": "Beaulieu Harbour",
		"asciiName": null,
		"a3": "GBR",
		"stateCode": "",
		"stateName": "Hampshire",
		"url": "www.beaulieu.co.uk",
		"authority": "Beaulieu Enterprises Ltd",
		"location": "Beaulieu",
		"lat": "50.801513907069356000000000000000",
		"lng": "-1.419961452484130900000000000000",
		"zoom": "16",
		"wpi": null,
		"size": "2",
		"thumb": "1",
		"review": "0",
		"uri": "GBR_Beaulieu_Harbour_2885.php"
	}, {
		"id": "2886",
		"name": "Bembridge Harbour",
		"asciiName": null,
		"a3": "GBR",
		"stateCode": "",
		"stateName": "Isle of Wight",
		"url": "",
		"authority": "",
		"location": "Bembridge",
		"lat": "50.693195463584864000000000000000",
		"lng": "-1.099963188171386700000000000000",
		"zoom": "15",
		"wpi": null,
		"size": "2",
		"thumb": "1",
		"review": "0",
		"uri": "GBR_Bembridge_Harbour_2886.php"
	}, {
		"id": "2840",
		"name": "Berneray Harbour",
		"asciiName": null,
		"a3": "GBR",
		"stateCode": "",
		"stateName": "Isle of Benbecula",
		"url": "www.cne-siar.gov.uk\/harbourmaster",
		"authority": "Comhairle Nan Eilean Siar",
		"location": "Berneray",
		"lat": "57.713976832847145000000000000000",
		"lng": "-7.169437408447266000000000000000",
		"zoom": "17",
		"wpi": null,
		"size": "2",
		"thumb": "1",
		"review": "0",
		"uri": "GBR_Berneray_Harbour_2840.php"
	}, {
		"id": "2813",
		"name": "Port of Berwick",
		"asciiName": null,
		"a3": "GBR",
		"stateCode": "",
		"stateName": "Northumberland",
		"url": "www.portofberwick.co.uk",
		"authority": "",
		"location": "Berwick",
		"lat": "55.763488833108530000000000000000",
		"lng": "-1.999425888061523400000000000000",
		"zoom": "14",
		"wpi": "31860",
		"size": "2",
		"thumb": "1",
		"review": "0",
		"uri": "GBR_Port_of_Berwick_2813.php"
	}, {
		"id": "2932",
		"name": "Bideford Harbour",
		"asciiName": null,
		"a3": "GBR",
		"stateCode": "",
		"stateName": "",
		"url": "",
		"authority": "Torridge District Council",
		"location": "Bideford",
		"lat": "51.018529946795980000000000000000",
		"lng": "-4.204003214836121000000000000000",
		"zoom": "15",
		"wpi": "35150",
		"size": "2",
		"thumb": "1",
		"review": "0",
		"uri": "GBR_Bideford_Harbour_2932.php"
	}, {
		"id": "2814",
		"name": "Bird Port",
		"asciiName": null,
		"a3": "GBR",
		"stateCode": "",
		"stateName": "Gwent",
		"url": "www.birdport.co.uk",
		"authority": "Cardiff Stevedoring and Cargo Handling Company Limited",
		"location": "Bird Port",
		"lat": "51.553086676792100000000000000000",
		"lng": "-2.967134714126587000000000000000",
		"zoom": "17",
		"wpi": null,
		"size": "2",
		"thumb": "1",
		"review": "0",
		"uri": "GBR_Bird_Port_2814.php"
	}, {
		"id": "2923",
		"name": "Port of Blyth",
		"asciiName": null,
		"a3": "GBR",
		"stateCode": "",
		"stateName": "Northumberland",
		"url": "www.portofblyth.co.uk",
		"authority": "Blyth Port Authority",
		"location": "Blyth",
		"lat": "55.128845357884450000000000000000",
		"lng": "-1.503067016601562500000000000000",
		"zoom": "13",
		"wpi": "31820",
		"size": "2",
		"thumb": "1",
		"review": "0",
		"uri": "GBR_Port_of_Blyth_2923.php"
	}, {
		"id": "1337",
		"name": "Port of Boston",
		"asciiName": null,
		"a3": "GBR",
		"stateCode": "",
		"stateName": "",
		"url": "www.portofboston.co.uk",
		"authority": "Victoria Group",
		"location": "Boston",
		"lat": "52.968905659918214000000000000000",
		"lng": "-0.017938613891601562000000000000",
		"zoom": "16",
		"wpi": "31630",
		"size": "2",
		"thumb": "1",
		"review": "0",
		"uri": "GBR_Port_of_Boston_1337.php"
	}, {
		"id": "3882",
		"name": "Braye Harbour",
		"asciiName": null,
		"a3": "GBR",
		"stateCode": "",
		"stateName": "Channel Islands",
		"url": "",
		"authority": "States of Alderney",
		"location": "Braye",
		"lat": "49.725755360049570000000000000000",
		"lng": "-2.195377349853515600000000000000",
		"zoom": "15",
		"wpi": null,
		"size": "2",
		"thumb": "1",
		"review": "0",
		"uri": "GBR_Braye_Harbour_3882.php"
	}, {
		"id": "2847",
		"name": "Port of Breibhig",
		"asciiName": null,
		"a3": "GBR",
		"stateCode": "",
		"stateName": "Isle of Benbecula",
		"url": "www.cne-siar.gov.uk\/harbourmaster",
		"authority": "Comhairle Nan Eilean Siar",
		"location": "Breibhig",
		"lat": "58.267327601802680000000000000000",
		"lng": "-6.294361352920532000000000000000",
		"zoom": "17",
		"wpi": null,
		"size": "2",
		"thumb": "1",
		"review": "0",
		"uri": "GBR_Port_of_Breibhig_2847.php"
	}, {
		"id": "2815",
		"name": "Port of Bridgwater",
		"asciiName": null,
		"a3": "GBR",
		"stateCode": "",
		"stateName": "",
		"url": "www.sedgemoor.gov.uk",
		"authority": "Sedgemoor District Council",
		"location": "Bridgwater",
		"lat": "51.133039904562530000000000000000",
		"lng": "-3.004964590072632000000000000000",
		"zoom": "17",
		"wpi": "35100",
		"size": "2",
		"thumb": "1",
		"review": "0",
		"uri": "GBR_Port_of_Bridgwater_2815.php"
	}, {
		"id": "2816",
		"name": "Bridlington Harbour",
		"asciiName": null,
		"a3": "GBR",
		"stateCode": "",
		"stateName": "East Yorkshire",
		"url": "",
		"authority": "Bridlington Harbour Commission",
		"location": "Bridlington",
		"lat": "54.080704907774480000000000000000",
		"lng": "-0.190479755401611330000000000000",
		"zoom": "16",
		"wpi": "31680",
		"size": "2",
		"thumb": "1",
		"review": "0",
		"uri": "GBR_Bridlington_Harbour_2816.php"
	}, {
		"id": "2817",
		"name": "Bridport Harbour",
		"asciiName": null,
		"a3": "GBR",
		"stateCode": "",
		"stateName": "Dorset",
		"url": "",
		"authority": "Port Authority of Bridport",
		"location": "Bridport",
		"lat": "50.710713376351954000000000000000",
		"lng": "-2.763297557830810500000000000000",
		"zoom": "16",
		"wpi": "35440",
		"size": "2",
		"thumb": "1",
		"review": "0",
		"uri": "GBR_Bridport_Harbour_2817.php"
	}, {
		"id": "1339",
		"name": "Brightlingsea Harbour",
		"asciiName": null,
		"a3": "GBR",
		"stateCode": "",
		"stateName": "Essex",
		"url": "www.brightlingsea-town.co.uk\/sailing\/harbour_commissioners.htm",
		"authority": "Brightlingsea Harbour Commissioners",
		"location": "Brightlingsea",
		"lat": "51.804860015069735000000000000000",
		"lng": "1.024818420410156200000000000000",
		"zoom": "15",
		"wpi": null,
		"size": "2",
		"thumb": "1",
		"review": "0",
		"uri": "GBR_Brightlingsea_Harbour_1339.php"
	}, {
		"id": "5050",
		"name": "Bristol City Docks",
		"asciiName": "",
		"a3": "GBR",
		"stateCode": "",
		"stateName": "",
		"url": "www.bristol.gov.uk\/ccm\/navigation\/transport-and-streets\/ports-and-harbours",
		"authority": "Bristol Harbour Office",
		"location": "Bristol ",
		"lat": "51.449647693717560000000000000000",
		"lng": "-2.606549263000488300000000000000",
		"zoom": "15",
		"wpi": "35070",
		"size": "2",
		"thumb": "1",
		"review": "0",
		"uri": "GBR_Bristol_City_Docks_5050.php"
	}, {
		"id": "1340",
		"name": "Port of Bristol",
		"asciiName": null,
		"a3": "GBR",
		"stateCode": "",
		"stateName": "",
		"url": "www.bristolport.co.uk",
		"authority": "The Bristol Port Company",
		"location": "Bristol",
		"lat": "51.498912006258060000000000000000",
		"lng": "-2.712249755859375000000000000000",
		"zoom": "13",
		"wpi": "35060",
		"size": "2",
		"thumb": "1",
		"review": "0",
		"uri": "GBR_Port_of_Bristol_1340.php"
	}, {
		"id": "2930",
		"name": "Brixham Harbour",
		"asciiName": null,
		"a3": "GBR",
		"stateCode": "",
		"stateName": "Devon",
		"url": "www.torbay.gov.uk",
		"authority": "Torbay Harbour Authority",
		"location": "Brixham",
		"lat": "50.401077650435110000000000000000",
		"lng": "-3.510818481445312500000000000000",
		"zoom": "14",
		"wpi": "35400",
		"size": "2",
		"thumb": "1",
		"review": "0",
		"uri": "GBR_Brixham_Harbour_2930.php"
	}, {
		"id": "2899",
		"name": "Port of Burghead",
		"asciiName": null,
		"a3": "GBR",
		"stateCode": "",
		"stateName": "Grampian",
		"url": "",
		"authority": "The Moray Council",
		"location": "Burghead",
		"lat": "57.701739578937650000000000000000",
		"lng": "-3.497428894042968800000000000000",
		"zoom": "16",
		"wpi": "32320",
		"size": "2",
		"thumb": "1",
		"review": "0",
		"uri": "GBR_Port_of_Burghead_2899.php"
	}, {
		"id": "3844",
		"name": "Burry Port Harbor",
		"asciiName": null,
		"a3": "GBR",
		"stateCode": "",
		"stateName": "Wales",
		"url": "www.burryport.org",
		"authority": "",
		"location": "Burry Port",
		"lat": "51.679979890341180000000000000000",
		"lng": "-4.250528812408447000000000000000",
		"zoom": "16",
		"wpi": null,
		"size": "2",
		"thumb": "1",
		"review": "0",
		"uri": "GBR_Burry_Port_Harbor_3844.php"
	}, {
		"id": "3852",
		"name": "Kings Ferry Wharf",
		"asciiName": null,
		"a3": "GBR",
		"stateCode": "",
		"stateName": "South Humberside",
		"url": "www.williegroup.co.uk",
		"authority": "Charles Willie Group",
		"location": "Burton-upon-Stather",
		"lat": "53.655111385152836000000000000000",
		"lng": "-0.693758726119995100000000000000",
		"zoom": "17",
		"wpi": null,
		"size": "2",
		"thumb": "1",
		"review": "0",
		"uri": "GBR_Kings_Ferry_Wharf_3852.php"
	}, {
		"id": "1341",
		"name": "Caernarfon Harbor",
		"asciiName": null,
		"a3": "GBR",
		"stateCode": "",
		"stateName": "Gwynedd",
		"url": "www.caernarfon-hbr.demon.co.uk",
		"authority": "Caernarfon Harbour Trust",
		"location": "Caernarfon",
		"lat": "53.143475584594526000000000000000",
		"lng": "-4.276771545410156000000000000000",
		"zoom": "16",
		"wpi": "34780",
		"size": "2",
		"thumb": "1",
		"review": "0",
		"uri": "GBR_Caernarfon_Harbor_1341.php"
	}, {
		"id": "3815",
		"name": "Cairnryan Harbor",
		"asciiName": null,
		"a3": "GBR",
		"stateCode": "",
		"stateName": "Scotland",
		"url": "",
		"authority": "P and O Irish Sea Ferries",
		"location": "Cairnryan",
		"lat": "54.968746264818700000000000000000",
		"lng": "-5.019636154174805000000000000000",
		"zoom": "14",
		"wpi": "33575",
		"size": "2",
		"thumb": "1",
		"review": "0",
		"uri": "GBR_Cairnryan_Harbor_3815.php"
	}, {
		"id": "2821",
		"name": "Port of Carnlough",
		"asciiName": null,
		"a3": "GBR",
		"stateCode": "",
		"stateName": "Antrim",
		"url": "",
		"authority": "Carnlough Whiting (Export) Ltd",
		"location": "Carnlough",
		"lat": "54.993619305878500000000000000000",
		"lng": "-5.988546609878540000000000000000",
		"zoom": "17",
		"wpi": null,
		"size": "2",
		"thumb": "1",
		"review": "0",
		"uri": "GBR_Port_of_Carnlough_2821.php"
	}, {
		"id": "2822",
		"name": "Carrickfergus Harbour",
		"asciiName": null,
		"a3": "GBR",
		"stateCode": "",
		"stateName": "",
		"url": "www.carrickfergus.org",
		"authority": "Carrickfergus Borough Council",
		"location": "Carrickfergus",
		"lat": "54.711160299469384000000000000000",
		"lng": "-5.810308456420898000000000000000",
		"zoom": "15",
		"wpi": null,
		"size": "2",
		"thumb": "1",
		"review": "0",
		"uri": "GBR_Carrickfergus_Harbour_2822.php"
	}, {
		"id": "4526",
		"name": "Port of Kilroot",
		"asciiName": null,
		"a3": "GBR",
		"stateCode": "",
		"stateName": "Northern Ireland",
		"url": "",
		"authority": "AES Kilroot",
		"location": "Carrickfergus",
		"lat": "54.725363705293560000000000000000",
		"lng": "-5.752801895141602000000000000000",
		"zoom": "15",
		"wpi": null,
		"size": "2",
		"thumb": "1",
		"review": "0",
		"uri": "GBR_Port_of_Kilroot_4526.php"
	}, {
		"id": "2831",
		"name": "Port of Castlebay",
		"asciiName": null,
		"a3": "GBR",
		"stateCode": "",
		"stateName": "Isle of Benbecula",
		"url": "www.cne-siar.gov.uk\/harbourmaster",
		"authority": "Comhairle Nan Eilean Siar",
		"location": "Castlebay",
		"lat": "56.954031948134040000000000000000",
		"lng": "-7.487847805023193000000000000000",
		"zoom": "16",
		"wpi": "32980",
		"size": "2",
		"thumb": "1",
		"review": "0",
		"uri": "GBR_Port_of_Castlebay_2831.php"
	}, {
		"id": "3823",
		"name": "Castletown Harbor",
		"asciiName": null,
		"a3": "GBR",
		"stateCode": "",
		"stateName": "Isle of Man",
		"url": "www.gov.im\/harbours",
		"authority": "Isle of Man Harbours",
		"location": "Castletown",
		"lat": "54.073856449874900000000000000000",
		"lng": "-4.651873111724853500000000000000",
		"zoom": "16",
		"wpi": null,
		"size": "2",
		"thumb": "1",
		"review": "0",
		"uri": "GBR_Castletown_Harbor_3823.php"
	}, {
		"id": "2843",
		"name": "Port of Ceann a Gharaidh",
		"asciiName": null,
		"a3": "GBR",
		"stateCode": "",
		"stateName": "Isle of Benbecula",
		"url": "www.cne-siar.gov.uk\/harbourmaster",
		"authority": "Comhairle Nan Eilean Siar",
		"location": "Ceann a Gharaidh",
		"lat": "57.070602978610110000000000000000",
		"lng": "-7.308869361877441000000000000000",
		"zoom": "16",
		"wpi": null,
		"size": "2",
		"thumb": "1",
		"review": "0",
		"uri": "GBR_Port_of_Ceann_a_Gharaidh_2843.php"
	}, {
		"id": "3088",
		"name": "Chatham Docks",
		"asciiName": null,
		"a3": "GBR",
		"stateCode": "",
		"stateName": "Kent",
		"url": "www.medwayports.com",
		"authority": "Mersey Docks and Harbour Company",
		"location": "Chatham",
		"lat": "51.399848236383370000000000000000",
		"lng": "0.547428131103515600000000000000",
		"zoom": "14",
		"wpi": "31390",
		"size": "2",
		"thumb": "1",
		"review": "0",
		"uri": "GBR_Chatham_Docks_3088.php"
	}, {
		"id": "1342",
		"name": "Chichester Harbour",
		"asciiName": null,
		"a3": "GBR",
		"stateCode": "",
		"stateName": "West Sussex",
		"url": "www.conservancy.co.uk",
		"authority": "Chichester Harbour Conservancy",
		"location": "Chichester",
		"lat": "50.807670394378010000000000000000",
		"lng": "-0.906372070312500000000000000000",
		"zoom": "12",
		"wpi": null,
		"size": "2",
		"thumb": "1",
		"review": "0",
		"uri": "GBR_Chichester_Harbour_1342.php"
	}, {
		"id": "4462",
		"name": "Rothesay Dock",
		"asciiName": null,
		"a3": "GBR",
		"stateCode": "",
		"stateName": "",
		"url": "",
		"authority": "",
		"location": "Clydebank",
		"lat": "55.894349749051190000000000000000",
		"lng": "-4.401526451110840000000000000000",
		"zoom": "15",
		"wpi": "33470",
		"size": "2",
		"thumb": "1",
		"review": "0",
		"uri": "GBR_Rothesay_Dock_4462.php"
	}, {
		"id": "2825",
		"name": "Port of Colchester",
		"asciiName": null,
		"a3": "GBR",
		"stateCode": "",
		"stateName": "Essex",
		"url": "www.colchester.gov.uk",
		"authority": "Colchester Borough Council",
		"location": "Colchester",
		"lat": "51.878570714198570000000000000000",
		"lng": "0.931112766265869100000000000000",
		"zoom": "16",
		"wpi": "31506",
		"size": "2",
		"thumb": "1",
		"review": "0",
		"uri": "GBR_Port_of_Colchester_2825.php"
	}, {
		"id": "2829",
		"name": "Port of Coleraine",
		"asciiName": null,
		"a3": "GBR",
		"stateCode": "",
		"stateName": "Londonderry",
		"url": "",
		"authority": "Coleraine Harbour Commissioners",
		"location": "Coleraine",
		"lat": "55.133200280625005000000000000000",
		"lng": "-6.675202846527100000000000000000",
		"zoom": "16",
		"wpi": "33820",
		"size": "2",
		"thumb": "1",
		"review": "0",
		"uri": "GBR_Port_of_Coleraine_2829.php"
	}, {
		"id": "2860",
		"name": "Conwy Harbour",
		"asciiName": null,
		"a3": "GBR",
		"stateCode": "",
		"stateName": "",
		"url": "www.conwy.gov.uk",
		"authority": "Conwy Port Authority",
		"location": "Conwy",
		"lat": "53.289488131258320000000000000000",
		"lng": "-3.833284378051758000000000000000",
		"zoom": "14",
		"wpi": null,
		"size": "2",
		"thumb": "1",
		"review": "0",
		"uri": "GBR_Conwy_Harbour_2860.php"
	}, {
		"id": "4477",
		"name": "Port of Coryton",
		"asciiName": null,
		"a3": "GBR",
		"stateCode": "",
		"stateName": "",
		"url": "",
		"authority": "",
		"location": "Coryton",
		"lat": "51.509062981334914000000000000000",
		"lng": "0.508289337158203100000000000000",
		"zoom": "13",
		"wpi": null,
		"size": "2",
		"thumb": "1",
		"review": "0",
		"uri": "GBR_Port_of_Coryton_4477.php"
	}, {
		"id": "5500",
		"name": "Port of Crinan",
		"asciiName": "",
		"a3": "GBR",
		"stateCode": "",
		"stateName": "",
		"url": "",
		"authority": "",
		"location": "Crinan",
		"lat": "56.091241155718016000000000000000",
		"lng": "-5.557279586791992000000000000000",
		"zoom": "16",
		"wpi": "33290",
		"size": "2",
		"thumb": "1",
		"review": "0",
		"uri": "GBR_Port_of_Crinan_5500.php"
	}, {
		"id": "3837",
		"name": "Cromarty Harbor",
		"asciiName": null,
		"a3": "GBR",
		"stateCode": "",
		"stateName": "Scotland",
		"url": "www.cromartyharbour.org",
		"authority": "Cromarty Harbor Trust",
		"location": "Cromarty",
		"lat": "57.683069086314910000000000000000",
		"lng": "-4.038258790969849000000000000000",
		"zoom": "17",
		"wpi": "32340",
		"size": "2",
		"thumb": "1",
		"review": "0",
		"uri": "GBR_Cromarty_Harbor_3837.php"
	}, {
		"id": "2861",
		"name": "Crouch Harbour",
		"asciiName": null,
		"a3": "GBR",
		"stateCode": "",
		"stateName": "",
		"url": "",
		"authority": "Crouch Harbour Authority",
		"location": "Crouch",
		"lat": "51.624118116943720000000000000000",
		"lng": "0.819511413574218800000000000000",
		"zoom": "15",
		"wpi": null,
		"size": "2",
		"thumb": "1",
		"review": "0",
		"uri": "GBR_Crouch_Harbour_2861.php"
	}, {
		"id": "4482",
		"name": "Port of Dagenham",
		"asciiName": "",
		"a3": "GBR",
		"stateCode": "",
		"stateName": "",
		"url": "",
		"authority": "",
		"location": "Dagenham",
		"lat": "51.516113906550470000000000000000",
		"lng": "0.144281387329101560000000000000",
		"zoom": "14",
		"wpi": null,
		"size": "2",
		"thumb": "1",
		"review": "0",
		"uri": "GBR_Port_of_Dagenham_4482.php"
	}, {
		"id": "1349",
		"name": "Dart Harbour",
		"asciiName": null,
		"a3": "GBR",
		"stateCode": "",
		"stateName": "Devon",
		"url": "www.dartharbour.org",
		"authority": "Dart Harbour and Navigation Authority",
		"location": "Dartmouth",
		"lat": "50.351320807995265000000000000000",
		"lng": "-3.574848175048828000000000000000",
		"zoom": "14",
		"wpi": "35390",
		"size": "2",
		"thumb": "1",
		"review": "0",
		"uri": "GBR_Dart_Harbour_1349.php"
	}, {
		"id": "3818",
		"name": "Douglas Harbor",
		"asciiName": null,
		"a3": "GBR",
		"stateCode": "",
		"stateName": "Isle of Man",
		"url": "www.gov.im\/harbours",
		"authority": "Isle of Man Harbours",
		"location": "Douglas",
		"lat": "54.146148808240675000000000000000",
		"lng": "-4.475212097167969000000000000000",
		"zoom": "15",
		"wpi": "33610",
		"size": "2",
		"thumb": "1",
		"review": "0",
		"uri": "GBR_Douglas_Harbor_3818.php"
	}, {
		"id": "48",
		"name": "Port of Dover",
		"asciiName": null,
		"a3": "GBR",
		"stateCode": "",
		"stateName": "England",
		"url": "www.doverport.co.uk",
		"authority": "Dover Harbour Board",
		"location": "Dover",
		"lat": "51.120980428612880000000000000000",
		"lng": "1.325311660766601600000000000000",
		"zoom": "14",
		"wpi": "35710",
		"size": "2",
		"thumb": "1",
		"review": "0",
		"uri": "GBR_Port_of_Dover_48.php"
	}, {
		"id": "3863",
		"name": "Dunvegan Harbor",
		"asciiName": null,
		"a3": "GBR",
		"stateCode": "",
		"stateName": "Scotland",
		"url": "",
		"authority": "",
		"location": "Dunvegan",
		"lat": "57.441548809511170000000000000000",
		"lng": "-6.590455770492554000000000000000",
		"zoom": "17",
		"wpi": null,
		"size": "2",
		"thumb": "1",
		"review": "0",
		"uri": "GBR_Dunvegan_Harbor_3863.php"
	}, {
		"id": "2865",
		"name": "Port of Exmouth",
		"asciiName": null,
		"a3": "GBR",
		"stateCode": "",
		"stateName": "",
		"url": "",
		"authority": "Port Authority of Exmouth",
		"location": "Exmouth",
		"lat": "50.617204332762240000000000000000",
		"lng": "-3.423818349838257000000000000000",
		"zoom": "17",
		"wpi": null,
		"size": "2",
		"thumb": "1",
		"review": "0",
		"uri": "GBR_Port_of_Exmouth_2865.php"
	}, {
		"id": "4495",
		"name": "Port of Fawley",
		"asciiName": null,
		"a3": "GBR",
		"stateCode": "",
		"stateName": "",
		"url": "",
		"authority": "",
		"location": "Fawley",
		"lat": "50.838630373019775000000000000000",
		"lng": "-1.335010528564453100000000000000",
		"zoom": "14",
		"wpi": "35590",
		"size": "2",
		"thumb": "1",
		"review": "0",
		"uri": "GBR_Port_of_Fawley_4495.php"
	}, {
		"id": "2826",
		"name": "Port of Fingringhoe",
		"asciiName": null,
		"a3": "GBR",
		"stateCode": "",
		"stateName": "Essex",
		"url": "www.colchester.gov.uk",
		"authority": "Colchester Borough Council",
		"location": "Fingringhoe",
		"lat": "51.853806248451410000000000000000",
		"lng": "0.956797599792480500000000000000",
		"zoom": "15",
		"wpi": null,
		"size": "2",
		"thumb": "1",
		"review": "0",
		"uri": "GBR_Port_of_Fingringhoe_2826.php"
	}, {
		"id": "4496",
		"name": "Finnart Oil Terminal",
		"asciiName": null,
		"a3": "GBR",
		"stateCode": "",
		"stateName": "",
		"url": "",
		"authority": "",
		"location": "Finnart",
		"lat": "56.113284752550946000000000000000",
		"lng": "-4.835915565490723000000000000000",
		"zoom": "15",
		"wpi": "33405",
		"size": "2",
		"thumb": "1",
		"review": "0",
		"uri": "GBR_Finnart_Oil_Terminal_4496.php"
	}, {
		"id": "3829",
		"name": "Fishbourne Harbor",
		"asciiName": null,
		"a3": "GBR",
		"stateCode": "",
		"stateName": "Isle of Wight",
		"url": "",
		"authority": "",
		"location": "Fishbourne",
		"lat": "50.733888387839030000000000000000",
		"lng": "-1.215212345123291000000000000000",
		"zoom": "16",
		"wpi": null,
		"size": "2",
		"thumb": "1",
		"review": "0",
		"uri": "GBR_Fishbourne_Harbor_3829.php"
	}, {
		"id": "2926",
		"name": "Port of Fishguard",
		"asciiName": "",
		"a3": "GBR",
		"stateCode": "",
		"stateName": "Pembrokeshire",
		"url": "www.fishguardport.com",
		"authority": "Stena Line Ports Ltd",
		"location": "Fishguard",
		"lat": "52.006547699523190000000000000000",
		"lng": "-4.983158111572266000000000000000",
		"zoom": "14",
		"wpi": "34850",
		"size": "2",
		"thumb": "1",
		"review": "0",
		"uri": "GBR_Port_of_Fishguard_2926.php"
	}, {
		"id": "942",
		"name": "Port of Fleetwood",
		"asciiName": null,
		"a3": "GBR",
		"stateCode": null,
		"stateName": "Lancashire",
		"url": "www.abports.co.uk\/custinfo\/ports\/fleet.htm",
		"authority": "Associated British Ports",
		"location": "Fleetwood",
		"lat": "53.921350109084116000000000000000",
		"lng": "-3.008065223693847700000000000000",
		"zoom": "15",
		"wpi": "34660",
		"size": "2",
		"thumb": "1",
		"review": "0",
		"uri": "GBR_Port_of_Fleetwood_942.php"
	}, {
		"id": "2868",
		"name": "Flixborough Wharf",
		"asciiName": null,
		"a3": "GBR",
		"stateCode": "",
		"stateName": "North Lincolnshire",
		"url": "www.flixboroughwharf.co.uk",
		"authority": "Flixborough Wharf Ltd",
		"location": "Flixborough",
		"lat": "53.619406662923510000000000000000",
		"lng": "-0.701601505279541000000000000000",
		"zoom": "16",
		"wpi": null,
		"size": "2",
		"thumb": "1",
		"review": "0",
		"uri": "GBR_Flixborough_Wharf_2868.php"
	}, {
		"id": "4562",
		"name": "Trent Wharves",
		"asciiName": null,
		"a3": "GBR",
		"stateCode": "",
		"stateName": "Scunthorpe, North Lincolnshire",
		"url": "www.gunnesswharf.co.uk",
		"authority": "Gunness Wharf Limited",
		"location": "Flixborough",
		"lat": "53.606689938190820000000000000000",
		"lng": "-0.711064338684082000000000000000",
		"zoom": "15",
		"wpi": null,
		"size": "2",
		"thumb": "1",
		"review": "0",
		"uri": "GBR_Trent_Wharves_4562.php"
	}, {
		"id": "4497",
		"name": "Flotta Oil Terminal",
		"asciiName": null,
		"a3": "GBR",
		"stateCode": "",
		"stateName": "Scotland",
		"url": "www.orkneyharbours.com",
		"authority": "Orkney Islands Council",
		"location": "Flotta",
		"lat": "58.842974201077624000000000000000",
		"lng": "-3.117542266845703000000000000000",
		"zoom": "13",
		"wpi": null,
		"size": "2",
		"thumb": "1",
		"review": "0",
		"uri": "GBR_Flotta_Oil_Terminal_4497.php"
	}, {
		"id": "2869",
		"name": "Folkestone Harbour",
		"asciiName": null,
		"a3": "GBR",
		"stateCode": "",
		"stateName": "Kent",
		"url": "www.folkestoneharbour.com",
		"authority": "Folkestone Harbour Co Ltd",
		"location": "Folkestone",
		"lat": "51.078562101951400000000000000000",
		"lng": "1.190600395202636700000000000000",
		"zoom": "15",
		"wpi": "35700",
		"size": "2",
		"thumb": "1",
		"review": "0",
		"uri": "GBR_Folkestone_Harbour_2869.php"
	}, {
		"id": "3839",
		"name": "Fortrose Harbor",
		"asciiName": null,
		"a3": "GBR",
		"stateCode": "",
		"stateName": "Scotland",
		"url": "",
		"authority": "Highland Council",
		"location": "Fortrose",
		"lat": "57.578532568190724000000000000000",
		"lng": "-4.134024381637573000000000000000",
		"zoom": "17",
		"wpi": null,
		"size": "2",
		"thumb": "1",
		"review": "0",
		"uri": "GBR_Fortrose_Harbor_3839.php"
	}, {
		"id": "2879",
		"name": "Port of Fosdyke",
		"asciiName": null,
		"a3": "GBR",
		"stateCode": "",
		"stateName": "",
		"url": "",
		"authority": "Port of Fosdyke Ltd",
		"location": "Fosdyke",
		"lat": "52.871830272882740000000000000000",
		"lng": "-0.040447711944580080000000000000",
		"zoom": "17",
		"wpi": null,
		"size": "2",
		"thumb": "1",
		"review": "0",
		"uri": "GBR_Port_of_Fosdyke_2879.php"
	}, {
		"id": "1350",
		"name": "Port of Fowey",
		"asciiName": null,
		"a3": "GBR",
		"stateCode": "",
		"stateName": "Cornwall",
		"url": "www.foweyharbour.co.uk",
		"authority": "Fowey Harbour Commissioners",
		"location": "Fowey",
		"lat": "50.336476710383280000000000000000",
		"lng": "-4.632797241210937500000000000000",
		"zoom": "15",
		"wpi": "35340",
		"size": "2",
		"thumb": "1",
		"review": "0",
		"uri": "GBR_Port_of_Fowey_1350.php"
	}, {
		"id": "2880",
		"name": "Fraserburgh Harbour",
		"asciiName": null,
		"a3": "GBR",
		"stateCode": "",
		"stateName": "",
		"url": "www.fraserburgh-harbour.co.uk",
		"authority": "Harbour Office",
		"location": "Fraserburgh",
		"lat": "57.693368864822496000000000000000",
		"lng": "-1.999683380126953100000000000000",
		"zoom": "15",
		"wpi": "32240",
		"size": "2",
		"thumb": "1",
		"review": "0",
		"uri": "GBR_Fraserburgh_Harbour_2880.php"
	}, {
		"id": "3853",
		"name": "Beckingham Wharf",
		"asciiName": "",
		"a3": "GBR",
		"stateCode": "",
		"stateName": "",
		"url": "www.twlogistics.co.uk",
		"authority": "TW Logistics Limited",
		"location": "Gainsborough",
		"lat": "53.399835373381720000000000000000",
		"lng": "-0.780104398727417000000000000000",
		"zoom": "18",
		"wpi": null,
		"size": "2",
		"thumb": "1",
		"review": "0",
		"uri": "GBR_Beckingham_Wharf_3853.php"
	}, {
		"id": "961",
		"name": "Port of Garston",
		"asciiName": null,
		"a3": "GBR",
		"stateCode": "",
		"stateName": "",
		"url": "www.abports.co.uk\/custinfo\/ports\/garston.htm",
		"authority": "Associated British Ports",
		"location": "Garston",
		"lat": "53.349757186458866000000000000000",
		"lng": "-2.906484603881836000000000000000",
		"zoom": "15",
		"wpi": null,
		"size": "2",
		"thumb": "1",
		"review": "0",
		"uri": "GBR_Port_of_Garston_961.php"
	}, {
		"id": "3809",
		"name": "Girvan Harbor",
		"asciiName": null,
		"a3": "GBR",
		"stateCode": "",
		"stateName": "Scotland",
		"url": "www.south-ayrshire.gov.uk",
		"authority": "South Ayrshire Council",
		"location": "Girvan",
		"lat": "55.244402316393460000000000000000",
		"lng": "-4.860484600067139000000000000000",
		"zoom": "16",
		"wpi": null,
		"size": "2",
		"thumb": "1",
		"review": "0",
		"uri": "GBR_Girvan_Harbor_3809.php"
	}, {
		"id": "3268",
		"name": "Glasgow Harbour",
		"asciiName": "",
		"a3": "GBR",
		"stateCode": "",
		"stateName": "Scotland",
		"url": "www.glasgowharbour.com",
		"authority": "",
		"location": "Glasgow",
		"lat": "55.863078643736320000000000000000",
		"lng": "-4.305181503295898000000000000000",
		"zoom": "14",
		"wpi": "33490",
		"size": "2",
		"thumb": "1",
		"review": "0",
		"uri": "GBR_Glasgow_Harbour_3268.php"
	}, {
		"id": "1346",
		"name": "King George V Dock",
		"asciiName": "",
		"a3": "GBR",
		"stateCode": "",
		"stateName": "",
		"url": "www.clydeport.co.uk",
		"authority": "Clydeport Ltd",
		"location": "Glasgow",
		"lat": "55.873336608765210000000000000000",
		"lng": "-4.358224868774414000000000000000",
		"zoom": "14",
		"wpi": null,
		"size": "2",
		"thumb": "1",
		"review": "0",
		"uri": "GBR_King_George_V_Dock_1346.php"
	}, {
		"id": "4481",
		"name": "Port of Glensanda",
		"asciiName": null,
		"a3": "GBR",
		"stateCode": "",
		"stateName": "",
		"url": "",
		"authority": "Foster Yeoman Ltd",
		"location": "Glensanda",
		"lat": "56.566482058840414000000000000000",
		"lng": "-5.535607337951660000000000000000",
		"zoom": "15",
		"wpi": null,
		"size": "2",
		"thumb": "1",
		"review": "0",
		"uri": "GBR_Port_of_Glensanda_4481.php"
	}, {
		"id": "4535",
		"name": "Gloucester and Sharpness Canal",
		"asciiName": null,
		"a3": "GBR",
		"stateCode": "",
		"stateName": "",
		"url": "www.britishwaterways.co.uk",
		"authority": "British Waterways",
		"location": "Gloucester",
		"lat": "51.778461891305160000000000000000",
		"lng": "-2.358627319335937500000000000000",
		"zoom": "11",
		"wpi": null,
		"size": "2",
		"thumb": "1",
		"review": "0",
		"uri": "GBR_Gloucester_and_Sharpness_Canal_4535.php"
	}, {
		"id": "5052",
		"name": "Gloucester Harbour",
		"asciiName": "",
		"a3": "GBR",
		"stateCode": "",
		"stateName": "Gloucestershire",
		"url": "www.gloucesterharbourtrustees.org.uk",
		"authority": "Gloucester Harbour Trustees",
		"location": "Gloucester",
		"lat": "51.860459145665246000000000000000",
		"lng": "-2.255501747131347700000000000000",
		"zoom": "15",
		"wpi": null,
		"size": "2",
		"thumb": "1",
		"review": "0",
		"uri": "GBR_Gloucester_Harbour_5052.php"
	}, {
		"id": "962",
		"name": "Port of Goole",
		"asciiName": null,
		"a3": "GBR",
		"stateCode": null,
		"stateName": "",
		"url": "www.abports.co.uk\/custinfo\/ports\/goole.htm",
		"authority": "Associated British Ports",
		"location": "Goole",
		"lat": "53.699247242364090000000000000000",
		"lng": "-0.867705345153808600000000000000",
		"zoom": "15",
		"wpi": "31670",
		"size": "2",
		"thumb": "1",
		"review": "0",
		"uri": "GBR_Port_of_Goole_962.php"
	}, {
		"id": "3887",
		"name": "Gorey harbour",
		"asciiName": null,
		"a3": "GBR",
		"stateCode": "",
		"stateName": "Channel Islands",
		"url": "www.jersey-harbours.com",
		"authority": "Jersey Harbours",
		"location": "Gorey",
		"lat": "49.198083127640565000000000000000",
		"lng": "-2.021505832672119000000000000000",
		"zoom": "16",
		"wpi": null,
		"size": "2",
		"thumb": "1",
		"review": "0",
		"uri": "GBR_Gorey_harbour_3887.php"
	}, {
		"id": "2887",
		"name": "Gosport Marina",
		"asciiName": null,
		"a3": "GBR",
		"stateCode": "",
		"stateName": "Hampshire",
		"url": "",
		"authority": "Gosport Marina Limited",
		"location": "Gosport",
		"lat": "50.795085343216200000000000000000",
		"lng": "-1.116914749145507800000000000000",
		"zoom": "14",
		"wpi": null,
		"size": "2",
		"thumb": "1",
		"review": "0",
		"uri": "GBR_Gosport_Marina_2887.php"
	}, {
		"id": "2801",
		"name": "Gourdon Harbour",
		"asciiName": null,
		"a3": "GBR",
		"stateCode": "",
		"stateName": "Banffshire",
		"url": "www.aberdeenshire.gov.uk\/harbours",
		"authority": "Aberdeenshire Council",
		"location": "Gourdon",
		"lat": "56.827198928672950000000000000000",
		"lng": "-2.286744117736816400000000000000",
		"zoom": "17",
		"wpi": null,
		"size": "2",
		"thumb": "1",
		"review": "0",
		"uri": "GBR_Gourdon_Harbour_2801.php"
	}, {
		"id": "2819",
		"name": "Gourock Harbour",
		"asciiName": "",
		"a3": "GBR",
		"stateCode": "",
		"stateName": "",
		"url": "www.calmac.co.uk",
		"authority": "Caledonian MacBrayne Ltd",
		"location": "Gourock",
		"lat": "55.957897522211596000000000000000",
		"lng": "-4.810380935668945000000000000000",
		"zoom": "15",
		"wpi": null,
		"size": "2",
		"thumb": "1",
		"review": "0",
		"uri": "GBR_Gourock_Harbour_2819.php"
	}, {
		"id": "2874",
		"name": "Port of Granton",
		"asciiName": "",
		"a3": "GBR",
		"stateCode": "",
		"stateName": "Stirlingshire",
		"url": "www.forthports.co.uk",
		"authority": "Forth Ports PLC",
		"location": "Granton",
		"lat": "55.984170958764620000000000000000",
		"lng": "-3.225646018981933600000000000000",
		"zoom": "15",
		"wpi": "31940",
		"size": "2",
		"thumb": "1",
		"review": "0",
		"uri": "GBR_Port_of_Granton_2874.php"
	}, {
		"id": "4478",
		"name": "Port of Gravesend",
		"asciiName": "",
		"a3": "GBR",
		"stateCode": "",
		"stateName": "",
		"url": "",
		"authority": "",
		"location": "Gravesend",
		"lat": "51.445876502099290000000000000000",
		"lng": "0.362033843994140600000000000000",
		"zoom": "13",
		"wpi": "31420",
		"size": "2",
		"thumb": "1",
		"review": "0",
		"uri": "GBR_Port_of_Gravesend_4478.php"
	}, {
		"id": "4479",
		"name": "Port of Grays",
		"asciiName": "",
		"a3": "GBR",
		"stateCode": "",
		"stateName": "",
		"url": "",
		"authority": "",
		"location": "Grays",
		"lat": "51.471974253518880000000000000000",
		"lng": "0.311479568481445300000000000000",
		"zoom": "14",
		"wpi": null,
		"size": "2",
		"thumb": "1",
		"review": "0",
		"uri": "GBR_Port_of_Grays_4479.php"
	}, {
		"id": "1345",
		"name": "Greenock Ocean Terminal",
		"asciiName": "",
		"a3": "GBR",
		"stateCode": "",
		"stateName": "",
		"url": "www.clydeport.co.uk",
		"authority": "Clydeport Ltd",
		"location": "Greenock",
		"lat": "55.954894394038890000000000000000",
		"lng": "-4.760642051696777000000000000000",
		"zoom": "15",
		"wpi": "33390",
		"size": "2",
		"thumb": "1",
		"review": "0",
		"uri": "GBR_Greenock_Ocean_Terminal_1345.php"
	}, {
		"id": "4480",
		"name": "Port of Greenwich",
		"asciiName": "",
		"a3": "GBR",
		"stateCode": "",
		"stateName": "",
		"url": "",
		"authority": "",
		"location": "Greenwich",
		"lat": "51.483333333333300000000000000000",
		"lng": "0.000000000000000000000000000000",
		"zoom": "14",
		"wpi": null,
		"size": "2",
		"thumb": "1",
		"review": "0",
		"uri": "GBR_Port_of_Greenwich_4480.php"
	}, {
		"id": "981",
		"name": "Port of Grimsby",
		"asciiName": null,
		"a3": "GBR",
		"stateCode": null,
		"stateName": "",
		"url": "www.abports.co.uk\/custinfo\/ports\/grimsby.htm",
		"authority": "Associated British Ports",
		"location": "Grimsby",
		"lat": "53.577830796275265000000000000000",
		"lng": "-0.073385238647460940000000000000",
		"zoom": "14",
		"wpi": "31640",
		"size": "2",
		"thumb": "1",
		"review": "0",
		"uri": "GBR_Port_of_Grimsby_981.php"
	}, {
		"id": "3854",
		"name": "Grove Wharf",
		"asciiName": null,
		"a3": "GBR",
		"stateCode": "",
		"stateName": "Scunthorpe",
		"url": "www.whartongrovewharf.co.uk",
		"authority": "Wharton Grove Wharf Ltd",
		"location": "Gunness",
		"lat": "53.605569562663590000000000000000",
		"lng": "-0.714240074157714800000000000000",
		"zoom": "15",
		"wpi": null,
		"size": "2",
		"thumb": "1",
		"review": "0",
		"uri": "GBR_Grove_Wharf_3854.php"
	}, {
		"id": "3855",
		"name": "Gunness Wharf Limited",
		"asciiName": null,
		"a3": "GBR",
		"stateCode": "",
		"stateName": "Scunthorpe",
		"url": "www.rms-europe.co.uk",
		"authority": "RMS Europe Group",
		"location": "Gunness",
		"lat": "53.587754145623066000000000000000",
		"lng": "-0.731577873229980500000000000000",
		"zoom": "17",
		"wpi": null,
		"size": "2",
		"thumb": "1",
		"review": "0",
		"uri": "GBR_Gunness_Wharf_Limited_3855.php"
	}, {
		"id": "2888",
		"name": "Hamble Harbour",
		"asciiName": null,
		"a3": "GBR",
		"stateCode": "",
		"stateName": "Hampshire",
		"url": "www.hants.gov.uk\/hambleharbour",
		"authority": "The River Hamble Harbour Authority",
		"location": "Hamble",
		"lat": "50.865778001098370000000000000000",
		"lng": "-1.308574676513671900000000000000",
		"zoom": "13",
		"wpi": null,
		"size": "2",
		"thumb": "1",
		"review": "0",
		"uri": "GBR_Hamble_Harbour_2888.php"
	}, {
		"id": "482",
		"name": "The Ports of Tees and Hartlepool",
		"asciiName": null,
		"a3": "GBR",
		"stateCode": "",
		"stateName": "Middlesbrough",
		"url": "www.thpal.co.uk",
		"authority": "PD Ports",
		"location": "Hartlepool",
		"lat": "54.696480698646220000000000000000",
		"lng": "-1.190643310546875000000000000000",
		"zoom": "15",
		"wpi": null,
		"size": "2",
		"thumb": "1",
		"review": "3140",
		"uri": "GBR_The_Ports_of_Tees_and_Hartlepool_482.php"
	}, {
		"id": "1351",
		"name": "Harwich Harbor",
		"asciiName": null,
		"a3": "GBR",
		"stateCode": "",
		"stateName": "Essex",
		"url": "www.hha.co.uk",
		"authority": "Harwich Haven Authority",
		"location": "Harwich",
		"lat": "51.947915411203810000000000000000",
		"lng": "1.287760734558105500000000000000",
		"zoom": "15",
		"wpi": "31530",
		"size": "2",
		"thumb": "1",
		"review": "0",
		"uri": "GBR_Harwich_Harbor_1351.php"
	}, {
		"id": "1352",
		"name": "Harwich International Port",
		"asciiName": null,
		"a3": "GBR",
		"stateCode": "",
		"stateName": "Essex",
		"url": "www.harwich.co.uk",
		"authority": "Harwich International Port Limited",
		"location": "Harwich",
		"lat": "51.948074123254020000000000000000",
		"lng": "1.251068115234375000000000000000",
		"zoom": "14",
		"wpi": null,
		"size": "2",
		"thumb": "1",
		"review": "0",
		"uri": "GBR_Harwich_International_Port_1352.php"
	}, {
		"id": "3840",
		"name": "Helmsdale Harbor",
		"asciiName": null,
		"a3": "GBR",
		"stateCode": "",
		"stateName": "Scotland",
		"url": "www.helmsdale-harbour.org.uk",
		"authority": "Highland Council",
		"location": "Helmsdale",
		"lat": "58.114851027307090000000000000000",
		"lng": "-3.648447990417480500000000000000",
		"zoom": "17",
		"wpi": "32370",
		"size": "2",
		"thumb": "1",
		"review": "0",
		"uri": "GBR_Helmsdale_Harbor_3840.php"
	}, {
		"id": "3856",
		"name": "Port of Hessle Haven",
		"asciiName": null,
		"a3": "GBR",
		"stateCode": "",
		"stateName": "East Yorkshire",
		"url": "www.waverleyshipping.co.uk",
		"authority": "Waverley Shipping Limited",
		"location": "Hessle Haven",
		"lat": "53.717110855201625000000000000000",
		"lng": "-0.432264804840087900000000000000",
		"zoom": "17",
		"wpi": null,
		"size": "2",
		"thumb": "1",
		"review": "0",
		"uri": "GBR_Port_of_Hessle_Haven_3856.php"
	}, {
		"id": "2883",
		"name": "Port of Heysham",
		"asciiName": null,
		"a3": "GBR",
		"stateCode": "",
		"stateName": "Lancashire",
		"url": "",
		"authority": "Heysham Port Ltd",
		"location": "Heysham",
		"lat": "54.033611539853155000000000000000",
		"lng": "-2.918372154235840000000000000000",
		"zoom": "15",
		"wpi": "34640",
		"size": "2",
		"thumb": "1",
		"review": "0",
		"uri": "GBR_Port_of_Heysham_2883.php"
	}, {
		"id": "2927",
		"name": "Holyhead Harbour",
		"asciiName": null,
		"a3": "GBR",
		"stateCode": "",
		"stateName": "Gwynedd",
		"url": "",
		"authority": "Stena Line Ports Ltd",
		"location": "Holyhead",
		"lat": "53.316672295505550000000000000000",
		"lng": "-4.629449844360352000000000000000",
		"zoom": "14",
		"wpi": "34770",
		"size": "2",
		"thumb": "1",
		"review": "0",
		"uri": "GBR_Holyhead_Harbour_2927.php"
	}, {
		"id": "2911",
		"name": "Port of Howden",
		"asciiName": null,
		"a3": "GBR",
		"stateCode": "",
		"stateName": "",
		"url": "www.pdports.co.uk",
		"authority": "PD Ports",
		"location": "Howden",
		"lat": "53.731679354891550000000000000000",
		"lng": "-0.853457450866699200000000000000",
		"zoom": "15",
		"wpi": null,
		"size": "2",
		"thumb": "1",
		"review": "0",
		"uri": "GBR_Port_of_Howden_2911.php"
	}, {
		"id": "1344",
		"name": "Hunterston Terminal",
		"asciiName": null,
		"a3": "GBR",
		"stateCode": "",
		"stateName": "Ayrshire",
		"url": "www.clydeport.co.uk",
		"authority": "Clydeport Ltd",
		"location": "Hunterston",
		"lat": "55.739481698693490000000000000000",
		"lng": "-4.881362915039062500000000000000",
		"zoom": "13",
		"wpi": "33515",
		"size": "2",
		"thumb": "1",
		"review": "0",
		"uri": "GBR_Hunterston_Terminal_1344.php"
	}, {
		"id": "4938",
		"name": "Port of Ilfracombe",
		"asciiName": "",
		"a3": "GBR",
		"stateCode": "",
		"stateName": "",
		"url": "",
		"authority": "",
		"location": "Ilfracombe",
		"lat": "51.210499540940530000000000000000",
		"lng": "-4.113264083862305000000000000000",
		"zoom": "16",
		"wpi": null,
		"size": "2",
		"thumb": "1",
		"review": "0",
		"uri": "GBR_Port_of_Ilfracombe_4938.php"
	}, {
		"id": "4471",
		"name": "Caledonian Canal",
		"asciiName": null,
		"a3": "GBR",
		"stateCode": "",
		"stateName": "",
		"url": "www.britishwaterways.co.uk",
		"authority": "British Waterways",
		"location": "Inverness",
		"lat": "57.112385007934010000000000000000",
		"lng": "-4.795532226562500000000000000000",
		"zoom": "8",
		"wpi": null,
		"size": "2",
		"thumb": "1",
		"review": "0",
		"uri": "GBR_Caledonian_Canal_4471.php"
	}, {
		"id": "1353",
		"name": "Port of Inverness",
		"asciiName": null,
		"a3": "GBR",
		"stateCode": "",
		"stateName": "Scottland",
		"url": "www.invernessharbour.co.uk",
		"authority": "Inverness Port Authority",
		"location": "Inverness",
		"lat": "57.486862585283426000000000000000",
		"lng": "-4.235658645629883000000000000000",
		"zoom": "14",
		"wpi": "32330",
		"size": "2",
		"thumb": "1",
		"review": "0",
		"uri": "GBR_Port_of_Inverness_1353.php"
	}, {
		"id": "2884",
		"name": "Irvine Harbour",
		"asciiName": null,
		"a3": "GBR",
		"stateCode": "",
		"stateName": "Strathclyde",
		"url": "",
		"authority": "Irvine Harbour Co",
		"location": "Irvine",
		"lat": "55.609335608156630000000000000000",
		"lng": "-4.684638977050781000000000000000",
		"zoom": "14",
		"wpi": "33540",
		"size": "2",
		"thumb": "1",
		"review": "0",
		"uri": "GBR_Irvine_Harbour_2884.php"
	}, {
		"id": "2889",
		"name": "Island Harbour",
		"asciiName": null,
		"a3": "GBR",
		"stateCode": "",
		"stateName": "Mill Lane",
		"url": "www.island-harbour.co.uk",
		"authority": "Island Harbour Ltd",
		"location": "Island Harbour",
		"lat": "50.725222872938666000000000000000",
		"lng": "-1.277933120727539000000000000000",
		"zoom": "16",
		"wpi": null,
		"size": "2",
		"thumb": "1",
		"review": "0",
		"uri": "GBR_Island_Harbour_2889.php"
	}, {
		"id": "3812",
		"name": "Isle of Whithorn Harbor",
		"asciiName": null,
		"a3": "GBR",
		"stateCode": "",
		"stateName": "Scotland",
		"url": "www.isleofwhithorn.com",
		"authority": "Dumfries and Galloway Council",
		"location": "Isle of Whithorn",
		"lat": "54.698861535364735000000000000000",
		"lng": "-4.363396167755127000000000000000",
		"zoom": "16",
		"wpi": null,
		"size": "2",
		"thumb": "1",
		"review": "0",
		"uri": "GBR_Isle_of_Whithorn_Harbor_3812.php"
	},